UID_EQUIP;CTO_NAME;MODELO;ARMARIO;ENDERECO;MUNICIPIO;LATITUDE;LONGITUDE;TIPO_CTO;SP;SS;NOME_OLT;NOME_PORTA_OLT
EQP0000000029463073;M04GP524;TO;AMMNS_G1M04;AVENIDA SENADOR RAIMUNDO PARENTE MANAUS ALVORADA 69048662 AM 70;MANAUS;-3.070066800;-60.028983100;GP;AMMNS-M04SP66;S8_1;MNS_M04_1_GPON_VLAN_106_107_108-ALC;1/1/2/14
EQP0000000088014723;N02G01759;CTO - OPTAP-B 90/10;AMMNS_G1N02;RUA GENERAL GLICERIO MANAUS CACHOEIRINHA 69065140 AM 456;MANAUS;-3.130166000;-60.009109200;G0;AMMNS-N02SP220;AMMNS-N02SP220-SS7;MNS_N02_2_GPON_VLAN_121_122_123-ALC;1/1/2/1
EQP0000000029451744;I01GP1991;TO;AMMNS_G1I01;AVENIDA ANDRE ARAUJO MANAUS ALEIXO 69060000 AM 1423;MANAUS;-3.103540200;-59.999199100;GP;;AMMNS-I01SP248-SS4;;
EQP0000000029451744;I01GP1991;TO;AMMNS_G1I01;AVENIDA ANDRE ARAUJO MANAUS ALEIXO 69060000 AM 1423;MANAUS;-3.103540200;-59.999199100;GP;;AMMNS-I01SP249-SS4;;
EQP0000000029451744;I01GP1991;TO;AMMNS_G1I01;AVENIDA ANDRE ARAUJO MANAUS ALEIXO 69060000 AM 1423;MANAUS;-3.103540200;-59.999199100;GP;;AMMNS-I01SP249-SS5;;
EQP0000000029451744;I01GP1991;TO;AMMNS_G1I01;AVENIDA ANDRE ARAUJO MANAUS ALEIXO 69060000 AM 1423;MANAUS;-3.103540200;-59.999199100;GP;;AMMNS-I01SP249-SS6;;
EQP0000000029451744;I01GP1991;TO;AMMNS_G1I01;AVENIDA ANDRE ARAUJO MANAUS ALEIXO 69060000 AM 1423;MANAUS;-3.103540200;-59.999199100;GP;;AMMNS-I01SP249-SS3;;
EQP0000000029451744;I01GP1991;TO;AMMNS_G1I01;AVENIDA ANDRE ARAUJO MANAUS ALEIXO 69060000 AM 1423;MANAUS;-3.103540200;-59.999199100;GP;AMMNS-I01SP249;AMMNS-I01SP249-SS7;MNS_I01_2_GPON_VLAN_103_104_105-ALC;1/1/5/3
EQP0000000029462216;I05GPC1442;TO;AMMNS_G1I05;RUA DA PROSPERIDADE MANAUS DOM PEDRO I 69040745 AM 423;MANAUS;-3.087030200;-60.056161500;GP;AMMNS-I05SP181;AMMNS-I05SP181-SS2;MNS_I05_1_GPON_VLAN_124_125_126-ALC;1/1/7/16
EQP0000000088013447;N02G0160;CTO - OPTAP-B 90/10;AMMNS_G1N02;AVENIDA CONSTANTINO NERY MANAUS PRESIDENTE VARGAS 69025315 AM 295;MANAUS;-3.122026400;-60.026896900;G0;AMMNS-N02SP20;AMMNS-N02SP20-SS8;MNS_N02_1_GPON_VLAN_118_119_120-ALC;1/1/1/15
EQP0000000087603945;I01G0180;CTO - OPTAP-B 90/10;AMMNS_G1I01;RUA RIO JAVARI MANAUS NOSSA SENHORA DAS GRACAS 69053110 AM SN;MANAUS;-3.103773300;-60.022964600;G0;AMMNS-I01SP23;AMMNS-I01SP23-SS4;BR-AMMNS01-OLT03-NK;1/1/3/7
EQP0000000088072606;N02G0322;CTO - OPTAP-B 90/10;AMMNS_G1N02;AVENIDA LEONARDO MALCHER MANAUS NOSSA SENHORA APARECIDA 69010455 AM 1588;MANAUS;-3.126142000;-60.017039000;G0;AMMNS-N02SP41;AMMNS-N02SP41-SS2;MNS_N02_1_GPON_VLAN_118_119_120-ALC;1/1/3/4
EQP0000000088074869;N02G0729;CTO - OPTAP-B 90/10;AMMNS_G1N02;RUA DOUTOR MOREIRA MANAUS CENTRO 69005250 AM 22;MANAUS;-3.137333700;-60.023030100;G0;AMMNS-N02SP92;AMMNS-N02SP92-SS1;MNS_N02_2_GPON_VLAN_121_122_123-ALC;1/1/2/13
EQP0000000087928925;I13G0386;CTO - OPTAP-B 90/10;AMMNS_G1I13;RUA PINTARROXO MANAUS CIDADE NOVA 69096135 AM 71;MANAUS;-3.040928000;-59.977915900;G0;AMMNS-I13SP49;AMMNS-I13SP49-SS2;MNS_I13_2_GPON_VLAN_182_183_184-ALC;1/1/7/4
EQP0000000088073722;N02G0058;CTO - OPTAP-B 90/10;AMMNS_G1N02;AVENIDA CONSTANTINO NERY MANAUS CHAPADA 69050001 AM 1458;MANAUS;-3.112229800;-60.026581800;G0;AMMNS-N02SP8;AMMNS-N02SP8-SS2;MNS_N02_2_GPON_VLAN_121_122_123-ALC;1/1/2/12
EQP0000000101962427;M08G0040;CTO - OPTAP-B 90/10;AMMNS_G1M08;AVENIDA BURITI MANAUS DISTRITO INDUSTRIAL I 69075000 AM 1900;MANAUS;-3.111637100;-59.964654600;G0;AMMNS-M08SP5;AMMNS-M08SP5-SS8;MNS_M08_1_GPON_VLAN_150_151-DCA;1/1/1/5
EQP0000000088139421;N03G0395;CTO - OPTAP-B 90/10;AMMNS_G1N03;RUA VISCONDE DE OURO PRETO MANAUS FLORES 69058080 AM 234;MANAUS;-3.061298800;-60.004610300;G0;AMMNS-N03SP50;AMMNS-N03SP50-SS3;MNS_N03_1_GPON_VLAN_112_113_114_ALC;1/1/3/6
EQP0000000087932850;I13G0392;CTO - OPTAP-B 90/10;AMMNS_G1I13;RUA ULISSES GUIMARAES MANAUS CIDADE NOVA 69096155 AM 505;MANAUS;-3.036479700;-59.974705700;G0;AMMNS-I13SP49;AMMNS-I13SP49-SS8;MNS_I13_2_GPON_VLAN_182_183_184-ALC;1/1/7/4
EQP0000000088005884;N02G0159;CTO - OPTAP-B 90/10;AMMNS_G1N02;RUA ALEXANDRE AMORIM MANAUS NOSSA SENHORA APARECIDA 69010300 AM 1416;MANAUS;-3.129639600;-60.027735200;G0;AMMNS-N02SP20;AMMNS-N02SP20-SS7;MNS_N02_1_GPON_VLAN_118_119_120-ALC;1/1/1/15
EQP0000000088074606;N02G0730;CTO - OPTAP-B 90/10;AMMNS_G1N02;TRAVESSA DO COMERCIO MANAUS CENTRO 69005240 AM 24;MANAUS;-3.136955800;-60.023606100;G0;AMMNS-N02SP92;AMMNS-N02SP92-SS2;MNS_N02_2_GPON_VLAN_121_122_123-ALC;1/1/2/13
EQP0000000029435785;I13GP2420;TO;AMMNS_G1I13;RUA ACURANA MANAUS CIDADE NOVA 69090003 AM 80;MANAUS;-3.039837300;-60.002413900;GP;AMMNS-I13SP303;AMMNS-I13SP303-SS4;MNS_I13_2_GPON_VLAN_182_183_184-ALC;1/1/3/3
EQP0000000087922526;I13G01126;CTO - OPTAP-B 90/10;AMMNS_G1I13;RUA GUABAJUBA MANAUS CIDADE NOVA 69090347 AM 8;MANAUS;-3.040827800;-59.991892200;G0;AMMNS-I13SP141;AMMNS-I13SP141-SS6;MNS_I13_2_GPON_VLAN_182_183_184-ALC;1/1/7/5
EQP0000000087695404;I01G0068;CTO - OPTAP-B 90/10;AMMNS_G1I01;RUA KULINAS MANAUS CHAPADA 69050570 AM 39;MANAUS;-3.094107700;-60.024408300;G0;AMMNS-I01SP9;AMMNS-I01SP9-SS4;BR-AMMNS01-OLT03-NK;1/1/3/6
EQP0000000088120250;N03G0195;CTO - OPTAP-B 90/10;AMMNS_G1N03;AVENIDA PROFESSOR NILTON LINS MANAUS FLORES 69058030 AM SN;MANAUS;-3.060503200;-59.994402500;G0;AMMNS-N03SP25;AMMNS-N03SP25-SS3;MNS_N03_1_GPON_VLAN_112_113_114_ALC;1/1/1/13
EQP0000000029437581;M04GP831;TO;AMMNS_G1M04;RUA DOM JACKSON D. RODRIGUES MANAUS FLORES 69058833 AM 333;MANAUS;-3.060106800;-60.022069300;GP;AMMNS-M04SP104;AMMNS-M04SP104-SS7;MNS_M04_1_GPON_VLAN_106_107_108-ALC;1/1/3/16
EQP0000000029462204;I05GP1476;TO;AMMNS_G1I05;RUA DA PROSPERIDADE MANAUS DOM PEDRO I 69040745 AM 423;MANAUS;-3.087168700;-60.055175900;GP;AMMNS-I05SP185;AMMNS-I05SP185-SS4;MNS_I05_1_GPON_VLAN_124_125_126-ALC;1/1/8/4
EQP0000000087935624;I14G01062;CTO - OPTAP-B 90/10;AMMNS_G1I14;RUA CASIMIRO DE ABREU MANAUS COMPENSA 69035240 AM 124;MANAUS;-3.106766600;-60.056227300;G0;AMMNS-I14SP133;AMMNS-I14SP133-SS6;BR-AMMNS14-OLT03-NK;1/1/1/1
EQP0000000088097362;N03G01686;CTO - OPTAP-B 90/10;AMMNS_G1N03;RUA ADALTO UCHOA MANAUS PARQUE 10 DE NOVEMBRO 69054718 AM SN;MANAUS;-3.070843700;-59.997956100;G0;AMMNS-N03SP211;AMMNS-N03SP211-SS6;MNS_N03_2_GPON_VLAN_115_116_117_ALC;1/1/1/9
EQP0000000087928215;I13G02514;CTO - OPTAP-B 90/10;AMMNS_G1I13;AVENIDA MAX TEIXEIRA MANAUS COLONIA SANTO ANTONIO 69093770 AM 2372;MANAUS;-3.039518700;-60.005821000;G0;AMMNS-I13SP315;AMMNS-I13SP315-SS2;MNS_I13_2_GPON_VLAN_182_183_184-ALC;1/1/3/12
EQP0000000088087110;N03GPT1638;CTO - OPTAP-B 90/10;AMMNS_G1N03;RUA WALDEMAR JARDIM MAUES MANAUS NOVO ALEIXO 69098455 AM 697;MANAUS;-3.065836900;-59.982723000;GPT;AMMNS-N03SP205;AMMNS-N03SP205-SS6;MNS_N03_2_GPON_VLAN_115_116_117_ALC;1/1/2/9
EQP0000000087977012;M04G02301;CTO - OPTAP-B 90/10;AMMNS_G1M04;RUA MARANHAO MANAUS FLORES 69058500 AM 5;MANAUS;-3.067525100;-60.012748300;G0;AMMNS-M04SP288;AMMNS-M04SP288-SS5;MNS_M04_2_GPON_VLAN_109_110_111-ALC;1/1/2/11
EQP0000000087984452;M04G0864;CTO - OPTAP-B 90/10;AMMNS_G1M04;RUA DOM JACKSON D. RODRIGUES MANAUS FLORES 69058833 AM 316;MANAUS;-3.060399600;-60.022307100;G0;AMMNS-M04SP108;AMMNS-M04SP108-SS8;MNS_M04_1_GPON_VLAN_106_107_108-ALC;1/1/4/4
EQP0000000087980197;M04G0339;CTO - OPTAP-B 90/10;AMMNS_G1M04;RUA RIO ORANGE MANAUS ALVORADA 69043007 AM 21;MANAUS;-3.070454900;-60.037553800;G0;AMMNS-M04SP43;AMMNS-M04SP43-SS3;MNS_M04_1_GPON_VLAN_106_107_108-ALC;1/1/2/11
EQP0000000087969411;M04G01644;CTO - OPTAP-B 90/10;AMMNS_G1M04;RUA 2 DE AGOSTO MANAUS PARQUE 10 DE NOVEMBRO 69050700 AM 82;MANAUS;-3.078196100;-60.020385800;G0;AMMNS-M04SP206;AMMNS-M04SP206-SS4;MNS_M04_1_GPON_VLAN_106_107_108-ALC;1/1/8/2
EQP0000000101977344;M08G0009;CTO - OPTAP-B 90/10;AMMNS_G1M08;AVENIDA SOLIMOES MANAUS DISTRITO INDUSTRIAL I 69075200 AM 10;MANAUS;-3.114598000;-59.951239800;G0;AMMNS-M08SP2;AMMNS-M08SP2-SS1;MNS_M08_1_GPON_VLAN_150_151-DCA;1/1/1/2
EQP0000000087612224;I01G02099;CTO - OPTAP-B 90/10;AMMNS_G1I01;PRACA NOSSA SENHORA DE NAZARE MANAUS ADRIANOPOLIS 69057450 AM 10;MANAUS;-3.111071000;-60.013784000;G0;AMMNS-I01SP263;AMMNS-I01SP263-SS3;BR-AMMNS01-OLT03-NK;1/1/3/12
EQP0000000087602252;I01G0177;CTO - OPTAP-B 90/10;AMMNS_G1I01;AVENIDA RIO MAR MANAUS NOSSA SENHORA DAS GRACAS 69053180 AM 726;MANAUS;-3.104811100;-60.019805400;G0;AMMNS-I01SP23;AMMNS-I01SP23-SS1;BR-AMMNS01-OLT03-NK;1/1/3/7
EQP0000000087597233;I01G0893;CTO - OPTAP-B 90/10;AMMNS_G1I01;RUA FELICIANA COSTA MANAUS NOSSA SENHORA DAS GRACAS 69057170 AM 26;MANAUS;-3.096753100;-60.016393600;G0;AMMNS-I01SP112;AMMNS-I01SP112-SS5;BR-AMMNS01-OLT03-NK;1/1/3/9
EQP0000000087964648;I15G0530;CTO - OPTAP-B 90/10;AMMNS_G1I15;RUA IGARAPE DO QUARENTA MANAUS DISTRITO INDUSTRIAL I 69075012 AM 417;MANAUS;-3.118178200;-59.975546000;G0;AMMNS-I15SP67;AMMNS-I15SP67-SS2;MNS_I15_1_GPON_VLAN_173_174_175-ALC;1/1/3/8
EQP0000000087628872;I01G0355;CTO - OPTAP-B 90/10;AMMNS_G1I01;BECO CARANGOLA MANAUS NOSSA SENHORA DAS GRACAS 69057142 AM 14;MANAUS;-3.095311300;-60.019581800;G0;AMMNS-I01SP45;AMMNS-I01SP45-SS3;BR-AMMNS01-OLT03-NK;1/1/3/8
EQP0000000029462208;I05GPC1458;TO;AMMNS_G1I05;RUA DA PROSPERIDADE MANAUS DOM PEDRO I 69040745 AM 423;MANAUS;-3.087320600;-60.055566200;GP;AMMNS-I05SP183;AMMNS-I05SP183-SS2;MNS_I05_1_GPON_VLAN_124_125_126-ALC;1/1/8/2
EQP0000000087606515;I01G02090;CTO - OPTAP-B 90/10;AMMNS_G1I01;RUA SALVADOR MANAUS ADRIANOPOLIS 69057040 AM 425;MANAUS;-3.107870500;-60.011307900;G0;AMMNS-I01SP262;AMMNS-I01SP262-SS2;BR-AMMNS01-OLT03-NK;1/1/3/11
EQP0000000087710425;I01G01909;CTO - OPTAP-B 90/10;AMMNS_G1I01;AVENIDA VIA LACTEA MANAUS ALEIXO 69060085 AM 4;MANAUS;-3.094074700;-59.995748700;G0;AMMNS-I01SP239;AMMNS-I01SP239-SS5;MNS_I01_2_GPON_VLAN_103_104_105-ALC;1/1/4/9
EQP0000000087921337;I13G01065;CTO - OPTAP-B 90/10;AMMNS_G1I13;RUA CONDE DE CAXIAS MANAUS FLORES 69058187 AM 13;MANAUS;-3.045718800;-59.988679400;G0;AMMNS-I13SP134;AMMNS-I13SP134-SS1;MNS_I13_1_GPON_VLAN_179_180_181-ALC;1/1/6/1
EQP0000000087700720;I01G01566;CTO - OPTAP-B 90/10;AMMNS_G1I01;RUA BELO HORIZONTE MANAUS ALEIXO 69060601 AM SN;MANAUS;-3.098499200;-60.006215700;G0;AMMNS-I01SP196;AMMNS-I01SP196-SS6;MNS_I01_2_GPON_VLAN_103_104_105-ALC;1/1/2/2
EQP0000000087992657;M10G0059;CTO - OPTAP-B 90/10;AMMNS_G1M10;AVENIDA AUTAZ MIRIM MANAUS DISTRITO INDUSTRIAL I 69075155 AM 6460;MANAUS;-3.060723100;-59.949573400;G0;AMMNS-M10SP8;AMMNS-M10SP8-SS3;MNS_M10_1_GPON_VLAN_161_162_163-SJS;1/1/1/3
EQP0000000087903332;I05GPT287;CTO - OPTAP-B 90/10;AMMNS_G1I05;RUA CONJUNTO DOS ADVOGADOS MANAUS PONTA NEGRA 69037002 AM 187;MANAUS;-3.091532800;-60.050912100;GPT;AMMNS-I05SP36;AMMNS-I05SP36-SS7;MNS_I05_1_GPON_VLAN_124_125_126-ALC;1/1/2/11
EQP0000000091304027;N07GPT1044;CTO - OPTAP-B 90/10;AMMNS_G1N07;ALAMEDA CARLOTA BONFIM MANAUS PONTA NEGRA 69037145 AM SN;MANAUS;-3.040737500;-60.084778500;GPT;AMMNS-N07SP131;AMMNS-N07SP131-SS4;MNS_N07_1_GPON_VLAN_130_131_132-ALC;1/1/7/13
EQP0000000087979014;M04G0283;CTO - OPTAP-B 90/10;AMMNS_G1M04;RUA AURELIO BUARQUE MANAUS ALVORADA 69043322 AM 40;MANAUS;-3.074023700;-60.032077200;G0;AMMNS-M04SP36;AMMNS-M04SP36-SS3;MNS_M04_1_GPON_VLAN_106_107_108-ALC;1/1/2/4
EQP0000000029476176;I05GPC1448;TO;AMMNS_G1I05;RUA DA PROSPERIDADE MANAUS DOM PEDRO I 69040745 AM 423;MANAUS;-3.087577900;-60.055829100;GP;AMMNS-I05SP181;AMMNS-I05SP181-SS8;MNS_I05_1_GPON_VLAN_124_125_126-ALC;1/1/7/16
EQP0000000029475176;I13GP2408;TO;AMMNS_G1I13;RUA ACURANA MANAUS CIDADE NOVA 69090003 AM 80;MANAUS;-3.040300600;-60.002096200;GP;AMMNS-I13SP301;AMMNS-I13SP301-SS8;MNS_I13_2_GPON_VLAN_182_183_184-ALC;1/1/3/1
EQP0000000088074144;N02G0060;CTO - OPTAP-B 90/10;AMMNS_G1N02;RUA KAKO CAMINHA MANAUS PRESIDENTE VARGAS 69025310 AM 39;MANAUS;-3.116504100;-60.027938200;G0;AMMNS-N02SP8;AMMNS-N02SP8-SS4;MNS_N02_2_GPON_VLAN_121_122_123-ALC;1/1/2/12
EQP0000000087935337;I14G01063;CTO - OPTAP-B 90/10;AMMNS_G1I14;RUA CASIMIRO DE ABREU MANAUS COMPENSA 69035240 AM 80;MANAUS;-3.106612500;-60.055707200;G0;AMMNS-I14SP133;AMMNS-I14SP133-SS7;BR-AMMNS14-OLT03-NK;1/1/1/1
EQP0000000029462215;I05GPC1450;TO;AMMNS_G1I05;RUA DA PROSPERIDADE MANAUS DOM PEDRO I 69040745 AM 423;MANAUS;-3.087665100;-60.055832400;GP;AMMNS-I05SP182;AMMNS-I05SP182-SS2;MNS_I05_1_GPON_VLAN_124_125_126-ALC;1/1/8/1
EQP0000000087969189;M04G01643;CTO - OPTAP-B 90/10;AMMNS_G1M04;RUA 2 DE AGOSTO MANAUS PARQUE 10 DE NOVEMBRO 69050700 AM 100;MANAUS;-3.078055800;-60.019774300;G0;AMMNS-M04SP206;AMMNS-M04SP206-SS3;MNS_M04_1_GPON_VLAN_106_107_108-ALC;1/1/8/2
EQP0000000088081158;N03G01267;CTO - OPTAP-B 90/10;AMMNS_G1N03;AVENIDA COSME FERREIRA MANAUS ALEIXO 69083000 AM 4240;MANAUS;-3.084332000;-59.980425100;G0;AMMNS-N03SP159;AMMNS-N03SP159-SS3;MNS_N03_2_GPON_VLAN_115_116_117_ALC;1/1/2/8
EQP0000000087965694;I15G0529;CTO - OPTAP-B 90/10;AMMNS_G1I15;RUA IGARAPE DO QUARENTA MANAUS DISTRITO INDUSTRIAL I 69075012 AM 119;MANAUS;-3.119807600;-59.977895100;G0;AMMNS-I15SP67;AMMNS-I15SP67-SS1;MNS_I15_1_GPON_VLAN_173_174_175-ALC;1/1/3/8
EQP0000000088015043;N02G01760;CTO - OPTAP-B 90/10;AMMNS_G1N02;RUA GENERAL GLICERIO MANAUS CACHOEIRINHA 69065140 AM 595;MANAUS;-3.130617700;-60.009213700;G0;AMMNS-N02SP220;AMMNS-N02SP220-SS8;MNS_N02_2_GPON_VLAN_121_122_123-ALC;1/1/2/1
EQP0000000189830866;I14G02430;CTO - OPTAP-B 70/30;AMMNS_G1I14;BECO SAO JANUARIO MANAUS VILA DA PRATA 69030581 AM 14;MANAUS;-3.108490200;-60.048288500;G0;AMMNS-I14SP304;AMMNS-I14SP304-SS5;BR-AMMNS14-OLT03-NK;1/1/2/9
EQP0000000189830866;I14G02430;CTO - OPTAP-B 70/30;AMMNS_G1I14;BECO SAO JANUARIO MANAUS VILA DA PRATA 69030581 AM 14;MANAUS;-3.108490200;-60.048288500;G0;AMMNS-I14SP304;AMMNS-I14SP304-SS6;BR-AMMNS14-OLT03-NK;1/1/2/9
EQP0000000101963884;M08G0035;CTO - OPTAP-B 70/30;AMMNS_G1M08;RUA IPE MANAUS DISTRITO INDUSTRIAL I 69075100 AM 200;MANAUS;-3.110967600;-59.958453500;G0;AMMNS-M08SP5;AMMNS-M08SP5-SS3;MNS_M08_1_GPON_VLAN_150_151-DCA;1/1/1/5
EQP0000000029437554;M04GP1371;TO;AMMNS_G1M04;RUA DOS PASSES MANAUS PARQUE 10 DE NOVEMBRO 69055161 AM 257;MANAUS;-3.082827700;-60.017177800;GP;AMMNS-M04SP172;AMMNS-M04SP172-SS3;MNS_M04_1_GPON_VLAN_106_107_108-ALC;1/1/6/7
EQP0000000087616276;I01G02101;CTO - OPTAP-B 90/10;AMMNS_G1I01;RUA SAO LUIZ MANAUS ADRIANOPOLIS 69057250 AM 315;MANAUS;-3.113390700;-60.013879700;G0;AMMNS-I01SP263;AMMNS-I01SP263-SS5;BR-AMMNS01-OLT03-NK;1/1/3/12
EQP0000000088016762;N02G02258;CTO - OPTAP-B 90/10;AMMNS_G1N02;AVENIDA CASTELO BRANCO MANAUS CACHOEIRINHA 69065010 AM 825;MANAUS;-3.129125100;-60.007953600;G0;AMMNS-N02SP283;AMMNS-N02SP283-SS2;MNS_N02_2_GPON_VLAN_121_122_123-ALC;1/1/2/14
EQP0000000029476173;I05GPC1478;TO;AMMNS_G1I05;RUA DA PROSPERIDADE MANAUS DOM PEDRO I 69040745 AM 423;MANAUS;-3.087678400;-60.055120200;GP;AMMNS-I05SP185;AMMNS-I05SP185-SS6;MNS_I05_1_GPON_VLAN_124_125_126-ALC;1/1/8/4
EQP0000000029462203;I05GPC1472;TO;AMMNS_G1I05;RUA DA PROSPERIDADE MANAUS DOM PEDRO I 69040745 AM 423;MANAUS;-3.087208000;-60.055177600;GP;AMMNS-I05SP184;AMMNS-I05SP184-SS8;MNS_I05_1_GPON_VLAN_124_125_126-ALC;1/1/8/3
EQP0000000029437583;I01GP975;TO;AMMNS_G1I01;AVENIDA RIO MAR MANAUS NOSSA SENHORA DAS GRACAS 69053180 AM 1141;MANAUS;-3.099876800;-60.019478100;GP;AMMNS-I01SP122;AMMNS-I01SP122-SS7;MNS_I01_1_GPON_VLAN_100_101_102-ALC;1/1/6/8
EQP0000000029437225;N03GP1212;TO;AMMNS_G1N03;RUA JOSE ROMAO MANAUS SAO JOSE OPERARIO 69085288 AM 215;MANAUS;-3.071382700;-59.972219100;GP;AMMNS-N03SP152;AMMNS-N03SP152-SS4;MNS_N03_2_GPON_VLAN_115_116_117_ALC;1/1/2/1
EQP0000000029468564;N02G02010;CTO - PAD TELEFONICA;AMMNS_G1N02;RUA CARMEN MIRANDA MANAUS CACHOEIRINHA 69065160 AM 1152;MANAUS;-3.130275400;-60.004884800;G0;AMMNS-N02SP252;AMMNS-N02SP252-SS2;MNS_N02_2_GPON_VLAN_121_122_123-ALC;1/1/2/5
EQP0000000189491880;I14G01080;CTO SPLITTER 1 8;AMMNS_G1I14;RUA RIBEIRO COUTO MANAUS COMPENSA 69035230 AM 5;MANAUS;-3.105597100;-60.056918100;G0;AMMNS-I14SP135;AMMNS-I14SP135-SS8;BR-AMMNS14-OLT03-NK;1/1/2/5
EQP0000000029455890;I13G01422;CTO - OPTAP-B-90/10;AMMNS_G1I13;RUA ITALIA MANAUS FLORES 69028070 AM 79;MANAUS;-3.048014600;-60.005609900;G0;AMMNS-I13SP178;AMMNS-I13SP178-SS6;MNS_I13_1_GPON_VLAN_179_180_181-ALC;1/1/7/12
EQP0000000029475077;N03G0498;CTO - OPTAP;AMMNS_G1N03;RUA NIKITA KHRUSCHEV MANAUS PARQUE 10 DE NOVEMBRO 69054729 AM SN;MANAUS;-3.070932000;-60.003276800;G0;AMMNS-N03SP63;AMMNS-N03SP63-SS2;MNS_N03_1_GPON_VLAN_112_113_114_ALC;1/1/4/3
EQP0000000029451312;N02G01540;CTO - PAD TELEFONICA;AMMNS_G1N02;AVENIDA CASTELO BRANCO MANAUS CACHOEIRINHA 69065011 AM 1735;MANAUS;-3.119986100;-60.007476400;G0;AMMNS-N02SP193;AMMNS-N02SP193-SS4;MNS_N02_1_GPON_VLAN_118_119_120-ALC;1/1/8/6
EQP0000000029455827;I14G0488;CTO - OPTAP-B-90/10;AMMNS_G1I14;RUA EVARISTO DA VEIGA MANAUS COMPENSA 69036350 AM 219;MANAUS;-3.101191100;-60.057604100;G0;AMMNS-I14SP61;AMMNS-I14SP61-SS8;MNS_I14_1_GPON_VLAN_185_186_187-ALC;1/1/4/2
EQP0000000029467849;N02G0012;CTO - PAD TELEFONICA;AMMNS_G1N02;RUA COMENDADOR CLEMENTINO MANAUS CENTRO 69025000 AM 449;MANAUS;-3.119172800;-60.023823200;G0;AMMNS-N02SP2;AMMNS-N02SP2-SS4;MNS_N02_1_GPON_VLAN_118_119_120-ALC;1/1/1/2
EQP0000000029463165;N02G0909;CTO - PAD TELEFONICA;AMMNS_G1N02;RUA MIRANDA LEAO MANAUS CENTRO 69005040 AM 578;MANAUS;-3.140211100;-60.019561600;G0;AMMNS-N02SP114;AMMNS-N02SP114-SS5;MNS_N02_1_GPON_VLAN_118_119_120-ALC;1/1/5/7
EQP0000000029452734;I05GPT1059;CTO - PAD TELEFONICA;AMMNS_G1I05;RUA TENENTE PINTO DE SA MANAUS CHAPADA 69040612 AM SN;MANAUS;-3.095967200;-60.038995400;GPT;AMMNS-I05SP133;AMMNS-I05SP133-SS3;MNS_I05_1_GPON_VLAN_124_125_126-ALC;1/1/6/14
EQP0000000062652525;I15G02235;CTO SPLITTER 1 8;AMMNS_G1I15;RUA CUNHA MELO MANAUS PETROPOLIS 69063450 AM 1338;MANAUS;-3.119435700;-59.991917800;G0;AMMNS-I15SP280;AMMNS-I15SP280-SS3;MNS_I15_2_GPON_VLAN_176_177_178-ALC;1/1/5/16
EQP0000000040890465;I16G01285;CTO SPLITTER 1 8;AMMNS_G1I16;RUA ESTRELA RAJADA MANAUS REDENCAO 69047430 AM 1515;MANAUS;-3.054139500;-60.045422900;G0;AMMNS-I16SP161;AMMNS-I16SP161-SS5;MNS_I16_1_GPON_VLAN_170_171_172-ALC;1/1/5/1
EQP0000000029458504;I15GP332;TO;AMMNS_G1I15;RUA PROFESSOR LAZARO GONCALVES MANAUS JAPIIM 69077747 AM SN;MANAUS;-3.106550700;-59.966449100;GP;AMMNS-I15SP42;AMMNS-I15SP42-SS4;MNS_I15_1_GPON_VLAN_173_174_175-ALC;1/1/1/16
EQP0000000029475267;N03GP1202;TO;AMMNS_G1N03;RUA JOSE ROMAO MANAUS SAO JOSE OPERARIO 69085288 AM 215;MANAUS;-3.071252400;-59.971847800;GP;AMMNS-N03SP151;AMMNS-N03SP151-SS2;MNS_N03_2_GPON_VLAN_115_116_117_ALC;1/1/1/16
EQP0000000040098777;I01G02361;CTO SPLITTER 1 8;AMMNS_G1I01;RUA URARIA MANAUS PETROPOLIS 69067512 AM 25;MANAUS;-3.106080200;-59.995315700;G0;AMMNS-I01SP296;AMMNS-I01SP296-SS1;MNS_I01_2_GPON_VLAN_103_104_105-ALC;1/1/7/8
EQP0000000029440610;I05G01603;CTO - PAD TELEFONICA;AMMNS_G1I05;RUA MACAUBAS MANAUS ALVORADA 69042825 AM 6;MANAUS;-3.082421800;-60.054444100;G0;AMMNS-I05SP201;AMMNS-I05SP201-SS3;MNS_I05_1_GPON_VLAN_124_125_126-ALC;1/1/8/10
EQP0000000073307803;I15G02220;CTO SPLITTER 1 8;AMMNS_G1I15;RUA CUNHA MELO MANAUS PETROPOLIS 69063450 AM 296;MANAUS;-3.121056300;-59.992272700;G0;AMMNS-I15SP278;AMMNS-I15SP278-SS4;MNS_I15_2_GPON_VLAN_176_177_178-ALC;1/1/5/14
EQP0000000029441655;I06GP1254;TO;AMMNS_G1I06;RUA ILHA OREGON MANAUS LIRIO DO VALE 69038561 AM 61;MANAUS;-3.072612500;-60.073497700;GP;AMMNS-I06SP157;AMMNS-I06SP157-SS6;MNS_I06_2_GPON_VLAN_139_140_141-ALC;1/1/8/3
EQP0000000029458355;I05G02196;CTO - OPTAP-B-80/20;AMMNS_G1I05;RUA DONA HYLMA THURY MANAUS ALVORADA 69043160 AM 104;MANAUS;-3.077720800;-60.042062500;G0;AMMNS-I05SP275;AMMNS-I05SP275-SS4;MNS_I05_2_GPON_VLAN_127_128_129-ALC;1/1/4/1
EQP0000000029466084;I01G0431;CTO - PAD TELEFONICA;AMMNS_G1I01;RUA RIO ICA MANAUS NOSSA SENHORA DAS GRACAS 69053100 AM 1012;MANAUS;-3.102089800;-60.022280400;G0;AMMNS-I01SP54;AMMNS-I01SP54-SS7;MNS_I01_1_GPON_VLAN_100_101_102-ALC;1/1/3/4
EQP0000000029475094;N03G0437;CTO - OPTAP;AMMNS_G1N03;RUA CLAUDE DEBUSSY MANAUS PARQUE 10 DE NOVEMBRO 69054736 AM SN;MANAUS;-3.069692100;-60.001269300;G0;AMMNS-N03SP55;AMMNS-N03SP55-SS5;MNS_N03_1_GPON_VLAN_112_113_114_ALC;1/1/3/11
EQP0000000029453320;I05G0206;CTO - PAD TELEFONICA;AMMNS_G1I05;RUA MONTE CASSINO MANAUS NOVA ESPERANCA 69037420 AM 10;MANAUS;-3.086142700;-60.059827300;G0;AMMNS-I05SP26;AMMNS-I05SP26-SS6;MNS_I05_1_GPON_VLAN_124_125_126-ALC;1/1/2/1
EQP0000000029467770;I01G0969;CTO - PAD TELEFONICA;AMMNS_G1I01;RUA CURITIBA MANAUS NOSSA SENHORA DAS GRACAS 69053160 AM 150;MANAUS;-3.101700100;-60.018453300;G0;AMMNS-I01SP122;AMMNS-I01SP122-SS1;MNS_I01_1_GPON_VLAN_100_101_102-ALC;1/1/6/8
EQP0000000029476274;N03GP1339;TO;AMMNS_G1N03;AVENIDA COSME FERREIRA MANAUS COROADO 69082230 AM 2214;MANAUS;-3.080699500;-59.974988600;GP;AMMNS-N03SP168;AMMNS-N03SP168-SS3;MNS_N03_1_GPON_VLAN_112_113_114_ALC;1/1/7/4
EQP0000000029439625;I05G01662;CTO - PAD TELEFONICA;AMMNS_G1I05;RUA PAULO PAIVA MANAUS DOM PEDRO I 69042740 AM 18;MANAUS;-3.085106400;-60.047688700;G0;AMMNS-I05SP208;AMMNS-I05SP208-SS6;MNS_I05_2_GPON_VLAN_127_128_129-ALC;1/1/1/1
EQP0000000029454596;I13G02971;CTO - OPTAP-B-70/30;AMMNS_G1I13;RUA GUANAVENAS MANAUS CIDADE NOVA 69090090 AM 33;MANAUS;-3.035579500;-59.989743600;G0;AMMNS-I13SP372;AMMNS-I13SP372-SS3;MNS_I13_2_GPON_VLAN_182_183_184-ALC;1/1/6/1
EQP0000000029463787;N02G0117;CTO - PAD TELEFONICA;AMMNS_G1N02;RUA DIBO FELIPE MANAUS PRESIDENTE VARGAS 69025210 AM 335;MANAUS;-3.119284300;-60.027019800;G0;AMMNS-N02SP15;AMMNS-N02SP15-SS5;MNS_N02_1_GPON_VLAN_118_119_120-ALC;1/1/1/10
EQP0000000029463777;N02G0111;CTO - PAD TELEFONICA;AMMNS_G1N02;RUA SILVA RAMOS MANAUS CENTRO 69010180 AM 147;MANAUS;-3.124886400;-60.025507600;G0;AMMNS-N02SP14;AMMNS-N02SP14-SS7;MNS_N02_1_GPON_VLAN_118_119_120-ALC;1/1/1/9
EQP0000000029439847;M04G01541;CTO - PAD TELEFONICA;AMMNS_G1M04;RUA CARLOS LECOR MANAUS PARQUE 10 DE NOVEMBRO 69055430 AM 992;MANAUS;-3.080934000;-60.012048900;G0;AMMNS-M04SP193;AMMNS-M04SP193-SS5;MNS_M04_1_GPON_VLAN_106_107_108-ALC;1/1/7/5
EQP0000000029439884;M04G01553;CTO - PAD TELEFONICA;AMMNS_G1M04;RUA CARLOS LECOR MANAUS PARQUE 10 DE NOVEMBRO 69055430 AM 1051;MANAUS;-3.080317600;-60.008612300;G0;AMMNS-M04SP195;AMMNS-M04SP195-SS1;MNS_M04_1_GPON_VLAN_106_107_108-ALC;1/1/7/7
EQP0000000029437221;N03GP1208;TO;AMMNS_G1N03;RUA JOSE ROMAO MANAUS SAO JOSE OPERARIO 69085288 AM 215;MANAUS;-3.071775400;-59.971752100;GP;AMMNS-N03SP151;AMMNS-N03SP151-SS8;MNS_N03_2_GPON_VLAN_115_116_117_ALC;1/1/1/16
EQP0000000029467950;I06G01161;CTO - PAD TELEFONICA;AMMNS_G1I06;TRAVESSA JUSSIAPE MANAUS LIRIO DO VALE 69038300 AM SN;MANAUS;-3.064727300;-60.069484200;G0;AMMNS-I06SP146;AMMNS-I06SP146-SS1;MNS_I06_1_GPON_VLAN_136_137_138-ALC;1/1/7/3
EQP0000000029465233;I01G0501;CTO - PAD TELEFONICA;AMMNS_G1I01;AVENIDA DJALMA BATISTA MANAUS CHAPADA 69050010 AM 841;MANAUS;-3.103217300;-60.024015100;G0;AMMNS-I01SP63;AMMNS-I01SP63-SS5;MNS_I01_1_GPON_VLAN_100_101_102-ALC;1/1/3/13
EQP0000000029457256;I01GP1945;TO;AMMNS_G1I01;AVENIDA ANDRE ARAUJO MANAUS ALEIXO 69060000 AM 2075;MANAUS;-3.099227300;-59.995597700;GP;AMMNS-I01SP244;AMMNS-I01SP244-SS1;MNS_I01_2_GPON_VLAN_103_104_105-ALC;1/1/4/14
EQP0000000029439571;N03G01668;CTO - OPTAP;AMMNS_G1N03;RUA GIACOMO PUCCINE MANAUS PARQUE 10 DE NOVEMBRO 69054717 AM SN;MANAUS;-3.071656600;-59.997452600;G0;AMMNS-N03SP209;AMMNS-N03SP209-SS4;MNS_N03_2_GPON_VLAN_115_116_117_ALC;1/1/1/7
EQP0000000029467243;I15G01039;CTO - OPTAP-B-90/10;AMMNS_G1I15;AVENIDA RODRIGO OTAVIO MANAUS CRESPO 69073177 AM 156;MANAUS;-3.118279100;-59.982635900;G0;AMMNS-I15SP130;AMMNS-I15SP130-SS7;MNS_I15_1_GPON_VLAN_173_174_175-ALC;1/1/5/5
EQP0000000029467943;I06G0593;CTO - PAD TELEFONICA;AMMNS_G1I06;RUA CAJUARANA MANAUS LIRIO DO VALE 69037810 AM 6;MANAUS;-3.080690500;-60.066058400;G0;AMMNS-I06SP75;AMMNS-I06SP75-SS1;MNS_I06_1_GPON_VLAN_136_137_138-ALC;1/1/4/13
EQP0000000029457039;I05G02619;CTO - OPTAP-B-70/30;AMMNS_G1I05;RUA CLISSIA MONTEIRO MAIA MANAUS ALVORADA 69042080 AM 431;MANAUS;-3.080091800;-60.053969200;G0;AMMNS-I05SP328;AMMNS-I05SP328-SS3;MNS_I05_2_GPON_VLAN_127_128_129-ALC;1/1/5/14
EQP0000000029466241;I16G0019;CTO - OPTAP-B-70/30;AMMNS_G1I16;RUA CLAUDIO SANTORO MANAUS DA PAZ 69049623 AM 12;MANAUS;-3.047571400;-60.033355600;G0;AMMNS-I16SP3;AMMNS-I16SP3-SS3;MNS_I16_1_GPON_VLAN_170_171_172-ALC;1/1/1/3
EQP0000000029457769;I15GP042;TO;AMMNS_G1I15;RUA JOSE DE ALENCAR MANAUS JAPIIM 69077795 AM 4131;MANAUS;-3.104636500;-59.964320400;GP;AMMNS-I15SP6;AMMNS-I15SP6-SS2;MNS_I15_1_GPON_VLAN_173_174_175-ALC;1/1/1/6
EQP0000000029466756;I15G01085;CTO - OPTAP-B-85/15;AMMNS_G1I15;RUA ALEIXO GARCIA MANAUS JAPIIM 69078750 AM 73;MANAUS;-3.120716900;-59.985580300;G0;AMMNS-I15SP136;AMMNS-I15SP136-SS5;MNS_I15_1_GPON_VLAN_173_174_175-ALC;1/1/5/11
EQP0000000029468562;N02G0757;CTO - PAD TELEFONICA;AMMNS_G1N02;RUA GUILHERME MOREIRA MANAUS CENTRO 69005300 AM 17;MANAUS;-3.137436300;-60.025009600;G0;AMMNS-N02SP95;AMMNS-N02SP95-SS5;MNS_N02_1_GPON_VLAN_118_119_120-ALC;1/1/4/4
EQP0000000029437261;I01GPT1379;CTO - PAD TELEFONICA;AMMNS_G1I01;AVENIDA EPHIGENIO SALLES MANAUS ALEIXO 69060020 AM 2137;MANAUS;-3.083120600;-59.998077600;GPT;AMMNS-I01SP173;AMMNS-I01SP173-SS3;MNS_I01_1_GPON_VLAN_100_101_102-ALC;1/1/8/12
EQP0000000029439828;I01G0053;CTO - PAD TELEFONICA;AMMNS_G1I01;RUA ARAUJO AMAZONAS MANAUS CHAPADA 69050060 AM 22;MANAUS;-3.090103900;-60.025559500;G0;AMMNS-I01SP7;AMMNS-I01SP7-SS5;MNS_I01_1_GPON_VLAN_100_101_102-ALC;1/1/1/7
EQP0000000029462192;N07GPT776;CTO - PAD TELEFONICA;AMMNS_G1N07;CONDOMINIO MORADA DOS NOBRES MANAUS TARUMA 69022190 AM 713;MANAUS;-3.020308400;-60.074465500;GPT;AMMNS-N07SP97;AMMNS-N07SP97-SS8;MNS_N07_1_GPON_VLAN_130_131_132-ALC;1/1/5/15
EQP0000000029440197;M04G01769;CTO - PAD TELEFONICA;AMMNS_G1M04;RUA TUCURUI MANAUS FLORES 69028143 AM 10;MANAUS;-3.056320100;-60.011204100;G0;AMMNS-M04SP222;AMMNS-M04SP222-SS1;MNS_M04_2_GPON_VLAN_109_110_111-ALC;1/1/1/2
EQP0000000029435708;I14G02388;CTO - OPTAP-B-80/20;AMMNS_G1I14;TRAVESSA EUROPIO MANAUS VILA DA PRATA 69030574 AM 27;MANAUS;-3.109814600;-60.048677300;G0;AMMNS-I14SP299;AMMNS-I14SP299-SS4;MNS_I14_2_GPON_VLAN_188_189_190-ALC;1/1/5/9
EQP0000000029466460;N03GPT1483;CTO - OPTAP;AMMNS_G1N03;RUA HEISEI MANAUS NOVO ALEIXO 69098449 AM 165;MANAUS;-3.070989900;-59.990692700;GPT;AMMNS-N03SP186;AMMNS-N03SP186-SS3;MNS_N03_1_GPON_VLAN_112_113_114_ALC;1/1/8/6
EQP0000000029468791;I05G01590;CTO - PAD TELEFONICA;AMMNS_G1I05;TRAVESSA ABIURANA MANAUS ALVORADA 69042832 AM 17;MANAUS;-3.084134300;-60.052243400;G0;AMMNS-I05SP199;AMMNS-I05SP199-SS6;MNS_I05_1_GPON_VLAN_124_125_126-ALC;1/1/8/8
EQP0000000101943578;I01GP187;MINI CDOE 1:2 + 1:8 PRECON SELADA 60/40;AMMNS_G1I01;AVENIDA DJALMA BATISTA MANAUS NOSSA SENHORA DAS GRACAS 69053000 AM 1719;MANAUS;-3.100509700;-60.024406400;GP;AMMNS-I01SP24;AMMNS-I01SP24-SS3;MNS_I01_1_GPON_VLAN_100_101_102-ALC;1/1/1/9
EQP0000000029440410;N03GPT1441;CTO - OPTAP;AMMNS_G1N03;RUA CACHOEIRA DA ONCA MANAUS NOVO ALEIXO 69098454 AM 335;MANAUS;-3.063823300;-59.979717300;GPT;AMMNS-N03SP181;AMMNS-N03SP181-SS1;MNS_N03_1_GPON_VLAN_112_113_114_ALC;1/1/8/1
EQP0000000029467945;N02G01530;CTO - PAD TELEFONICA;AMMNS_G1N02;AVENIDA CODAJAS MANAUS PRACA 14 DE JANEIRO 69020515 AM 154;MANAUS;-3.119902800;-60.008742200;G0;AMMNS-N02SP192;AMMNS-N02SP192-SS2;MNS_N02_1_GPON_VLAN_118_119_120-ALC;1/1/8/5
EQP0000000038300868;I01GP1206;MINI CDOE 1:2 + 1:8 PRECON SELADA 60/40;AMMNS_G1I01;AVENIDA EPHIGENIO SALLES MANAUS ALEIXO 69060020 AM 2240;MANAUS;-3.087800000;-59.996989200;GP;AMMNS-I01SP151;AMMNS-I01SP151-SS6;MNS_I01_1_GPON_VLAN_100_101_102-ALC;1/1/8/5
EQP0000000040224680;I01G02394;CTO SPLITTER 1 8;AMMNS_G1I01;RUA MONTE PASCOAL MANAUS PETROPOLIS 69067775 AM 12;MANAUS;-3.098388600;-59.990691500;G0;AMMNS-I01SP300;AMMNS-I01SP300-SS2;MNS_I01_2_GPON_VLAN_103_104_105-ALC;1/1/7/12
EQP0000000029451874;I06G0825;CTO - PAD TELEFONICA;AMMNS_G1I06;RUA CANOPUS MANAUS LIRIO DO VALE 69038000 AM 391;MANAUS;-3.080409000;-60.066588900;G0;AMMNS-I06SP104;AMMNS-I06SP104-SS1;MNS_I06_1_GPON_VLAN_136_137_138-ALC;1/1/5/2
EQP0000000040088770;I01G02466;CTO SPLITTER 1 8;AMMNS_G1I01;RUA ARISTOTELES BONFIM MANAUS PETROPOLIS 69067230 AM 87;MANAUS;-3.103227100;-59.991235700;G0;AMMNS-I01SP309;AMMNS-I01SP309-SS2;MNS_I01_2_GPON_VLAN_103_104_105-ALC;1/1/8/5
EQP0000000029468671;M04G01323;CTO - PAD TELEFONICA;AMMNS_G1M04;RUA MANOEL MARQUES DE SOUZA MANAUS PARQUE 10 DE NOVEMBRO 69055240 AM 232;MANAUS;-3.086222600;-60.012513200;G0;AMMNS-M04SP166;AMMNS-M04SP166-SS3;MNS_M04_1_GPON_VLAN_106_107_108-ALC;1/1/6/1
EQP0000000029462310;N07GPT1113;CTO - PAD TELEFONICA;AMMNS_G1N07;ALAMEDA CARLOTA BONFIM MANAUS PONTA NEGRA 69037145 AM 3269;MANAUS;-3.046129700;-60.088418300;GPT;AMMNS-N07SP140;AMMNS-N07SP140-SS1;MNS_N07_1_GPON_VLAN_130_131_132-ALC;1/1/6/16
EQP0000000029441641;I05GP1098;TO;AMMNS_G1I05;AVENIDA DOUTOR THEOMARIO PINTO DA COSTA MANAUS CHAPADA 69050055 AM 811;MANAUS;-3.092924700;-60.034476400;GP;AMMNS-I05SP138;AMMNS-I05SP138-SS2;MNS_I05_1_GPON_VLAN_124_125_126-ALC;1/1/7/3
EQP0000000029463502;I06GP442;TO;AMMNS_G1I06;AVENIDA CORONEL TEIXEIRA MANAUS PONTA NEGRA 69037000 AM 6225;MANAUS;-3.085570300;-60.070770600;GP;AMMNS-I06SP56;AMMNS-I06SP56-SS2;MNS_I06_1_GPON_VLAN_136_137_138-ALC;1/1/3/10
EQP0000000029440094;N03G01504;CTO - OPTAP;AMMNS_G1N03;RUA FURUOKA MANAUS PARQUE 10 DE NOVEMBRO 69054215 AM SN;MANAUS;-3.073527000;-59.988814100;G0;AMMNS-N03SP188;AMMNS-N03SP188-SS8;MNS_N03_1_GPON_VLAN_112_113_114_ALC;1/1/8/8
EQP0000000029437321;I01G01134;CTO - PAD TELEFONICA;AMMNS_G1I01;RUA MAXIMO DOS SANTOS MANAUS NOSSA SENHORA DAS GRACAS 69053480 AM 246;MANAUS;-3.110941300;-60.020289100;G0;AMMNS-I01SP142;AMMNS-I01SP142-SS6;MNS_I01_1_GPON_VLAN_100_101_102-ALC;1/1/7/12
EQP0000000029462749;N03GP1065;TO;AMMNS_G1N03;RUA FEIRA DE SANTANA MANAUS PARQUE 10 DE NOVEMBRO 69054025 AM 485;MANAUS;-3.074010100;-60.008903700;GP;AMMNS-N03SP134;AMMNS-N03SP134-SS1;MNS_N03_1_GPON_VLAN_112_113_114_ALC;1/1/5/12
EQP0000000029441556;N03G0410;CTO - OPTAP;AMMNS_G1N03;RUA MICHEL FOKINE MANAUS PARQUE 10 DE NOVEMBRO 69054739 AM SN;MANAUS;-3.066793400;-60.001920800;G0;AMMNS-N03SP52;AMMNS-N03SP52-SS2;MNS_N03_1_GPON_VLAN_112_113_114_ALC;1/1/3/8
EQP0000000040623451;I16G01721;CTO SPLITTER 1 8;AMMNS_G1I16;TRAVESSA MIRASSELVA MANAUS REDENCAO 69047185 AM 10;MANAUS;-3.056576200;-60.033870500;G0;AMMNS-I16SP216;AMMNS-I16SP216-SS1;MNS_I16_1_GPON_VLAN_170_171_172-ALC;1/1/8/8
EQP0000000029441564;N03G0419;CTO - OPTAP;AMMNS_G1N03;RUA VASCO VASQUE MANAUS PARQUE 10 DE NOVEMBRO 69054737 AM SN;MANAUS;-3.070160300;-60.000022900;G0;AMMNS-N03SP53;AMMNS-N03SP53-SS3;MNS_N03_1_GPON_VLAN_112_113_114_ALC;1/1/3/9
EQP0000000029462522;I01G02266;CTO - PAD TELEFONICA;AMMNS_G1I01;RUA MAJOR GABRIEL MANAUS PRACA 14 DE JANEIRO 69020405 AM 1870;MANAUS;-3.117468500;-60.016707700;G0;AMMNS-I01SP284;AMMNS-I01SP284-SS2;MNS_I01_2_GPON_VLAN_103_104_105-ALC;1/1/6/11
EQP0000000029441637;I06GP1484;TO;AMMNS_G1I06;AVENIDA JOSE MOACIR TEBERGA DE TOLEDO MANAUS PLANALTO 69044235 AM 1622;MANAUS;-3.064501800;-60.063208300;GP;AMMNS-I06SP186;AMMNS-I06SP186-SS4;MNS_I06_1_GPON_VLAN_136_137_138-ALC;1/1/6/8
EQP0000000029437273;N03GP1219;TO;AMMNS_G1N03;RUA JOSE ROMAO MANAUS SAO JOSE OPERARIO 69085288 AM 215;MANAUS;-3.072541400;-59.971818600;GP;AMMNS-N03SP153;AMMNS-N03SP153-SS3;MNS_N03_2_GPON_VLAN_115_116_117_ALC;1/1/2/2
EQP0000000029465623;M10G012;CTO - OPTAP-B-80/20;AMMNS_G1M10;AVENIDA AUTAZ MIRIM MANAUS SAO JOSE OPERARIO 69085000 AM 126;MANAUS;-3.059067600;-59.949017500;G0;AMMNS-M10SP2;AMMNS-M10SP2-SS4;MNS_M10_1_GPON_VLAN_161_162_163-SJS;1/1/1/1
EQP0000000038305410;I01GP1232;MINI CDOE 1:2 + 1:8 PRECON SELADA 60/40;AMMNS_G1I01;AVENIDA EPHIGENIO SALLES MANAUS ALEIXO 69060020 AM 2240;MANAUS;-3.087930800;-59.996813200;GP;AMMNS-I01SP154;AMMNS-I01SP154-SS8;MNS_I01_1_GPON_VLAN_100_101_102-ALC;1/1/8/8
EQP0000000029437637;I14G02820;CTO - OPTAP-B-80/20;AMMNS_G1I14;RUA MARIA CAVALCANTE MANAUS SAO JORGE 69033570 AM 35;MANAUS;-3.107781900;-60.040467700;G0;AMMNS-I14SP353;AMMNS-I14SP353-SS4;MNS_I14_2_GPON_VLAN_188_189_190-ALC;1/1/7/1
EQP0000000029458074;I14G0671;CTO - OPTAP-B-90/10;AMMNS_G1I14;RUA ALCINDO GUANABARA MANAUS COMPENSA 69035151 AM 72;MANAUS;-3.109492500;-60.055735700;G0;AMMNS-I14SP84;AMMNS-I14SP84-SS7;MNS_I14_1_GPON_VLAN_185_186_187-ALC;1/1/5/3
EQP0000000029451317;N02G01539;CTO - PAD TELEFONICA;AMMNS_G1N02;AVENIDA CASTELO BRANCO MANAUS CACHOEIRINHA 69065011 AM 1883;MANAUS;-3.119762200;-60.007456500;G0;AMMNS-N02SP193;AMMNS-N02SP193-SS3;MNS_N02_1_GPON_VLAN_118_119_120-ALC;1/1/8/6
EQP0000000029464612;I06G02036;CTO - OPTAP-B-80/20;AMMNS_G1I06;RUA FRANCISCO MACIEL MANAUS ALVORADA 69043340 AM 328;MANAUS;-3.072934000;-60.052766500;G0;AMMNS-I06SP255;AMMNS-I06SP255-SS4;MNS_I06_2_GPON_VLAN_139_140_141-ALC;1/1/5/8
EQP0000000038307262;M04GP1740;MINI CDOE 1:2 + 1:8 PRECON SELADA 60/40;AMMNS_G1M04;RUA PARAOPEBA MANAUS FLORES 69028388 AM 274;MANAUS;-3.055008100;-60.013881300;GP;AMMNS-M04SP218;AMMNS-M04SP218-SS4;MNS_M04_1_GPON_VLAN_106_107_108-ALC;1/1/8/14
EQP0000000101992701;I01GP513;MINI CDOE 1:2 + 1:8 PRECON SELADA 60/40;AMMNS_G1I01;AVENIDA RIO MADEIRA MANAUS NOSSA SENHORA DAS GRACAS 69053030 AM 36;MANAUS;-3.109366300;-60.020611200;GP;AMMNS-I01SP65;AMMNS-I01SP65-SS1;MNS_I01_1_GPON_VLAN_100_101_102-ALC;1/1/3/15
EQP0000000029452396;N02G0596;CTO - PAD TELEFONICA;AMMNS_G1N02;RUA LUIZ ANTONY MANAUS CENTRO 69010100 AM 163;MANAUS;-3.131409600;-60.027906800;G0;AMMNS-N02SP75;AMMNS-N02SP75-SS4;MNS_N02_1_GPON_VLAN_118_119_120-ALC;1/1/3/14
EQP0000000029462234;M04GP313;TO;AMMNS_G1M04;RUA PROFESSORA CACILDA PEDROSO MANAUS ALVORADA 69048340 AM 700;MANAUS;-3.066197400;-60.034275300;GP;AMMNS-M04SP40;AMMNS-M04SP40-SS1;MNS_M04_1_GPON_VLAN_106_107_108-ALC;1/1/2/8
EQP0000000040878500;I16G01703;CTO SPLITTER 1 8;AMMNS_G1I16;RUA FLOR CAMARADINHA MANAUS REDENCAO 69049303 AM 3;MANAUS;-3.052481100;-60.035416500;G0;AMMNS-I16SP213;AMMNS-I16SP213-SS7;MNS_I16_1_GPON_VLAN_170_171_172-ALC;1/1/8/5
EQP0000000103028912;I06GP503;MINI CDOE 1:2 + 1:8 PRECON SELADA 60/40;AMMNS_G1I06;AVENIDA CORONEL TEIXEIRA MANAUS NOVA ESPERANCA 69037473 AM 6225;MANAUS;-3.084943500;-60.068320300;GP;AMMNS-I06SP63;AMMNS-I06SP63-SS7;MNS_I06_1_GPON_VLAN_136_137_138-ALC;1/1/4/1
EQP0000000029462794;N02G0894;CTO - PAD TELEFONICA;AMMNS_G1N02;RUA DOS ANDRADAS MANAUS CENTRO 69005180 AM 266;MANAUS;-3.138515100;-60.021990000;G0;AMMNS-N02SP112;AMMNS-N02SP112-SS6;MNS_N02_1_GPON_VLAN_118_119_120-ALC;1/1/5/5
EQP0000000135022369;M04GPT1797;MINI CDOE 1:2 + 1:8 PRECON SELADA 60/40;AMMNS_G1M04;RUA INALDO LUIGI MANAUS FLORES 69028348 AM 163;MANAUS;-3.056199600;-60.016080200;GPT;AMMNS-M04SP225;AMMNS-M04SP225-SS5;MNS_M04_2_GPON_VLAN_109_110_111-ALC;1/1/1/5
EQP0000000029465925;I01G0389;CTO - PAD TELEFONICA;AMMNS_G1I01;RUA RIO AMAPA MANAUS NOSSA SENHORA DAS GRACAS 69053150 AM SN;MANAUS;-3.101324400;-60.020163800;G0;AMMNS-I01SP49;AMMNS-I01SP49-SS5;MNS_I01_1_GPON_VLAN_100_101_102-ALC;1/1/2/15
EQP0000000029468100;N02G01591;CTO - PAD TELEFONICA;AMMNS_G1N02;RUA JAPURA MANAUS CENTRO 69025020 AM 129;MANAUS;-3.121289800;-60.009591200;G0;AMMNS-N02SP199;AMMNS-N02SP199-SS7;MNS_N02_1_GPON_VLAN_118_119_120-ALC;1/1/8/12
EQP0000000029464194;N07GPT787;CTO - PAD TELEFONICA;AMMNS_G1N07;AVENIDA DO CETUR MANAUS TARUMA 69022155 AM 499;MANAUS;-3.024758600;-60.073658200;GPT;AMMNS-N07SP99;AMMNS-N07SP99-SS3;MNS_N07_1_GPON_VLAN_130_131_132-ALC;1/1/6/1
EQP0000000029462434;N02G0319;CTO - PAD TELEFONICA;AMMNS_G1N02;RUA DOUTOR MACHADO MANAUS CENTRO 69020015 AM 332;MANAUS;-3.124497900;-60.017893300;G0;AMMNS-N02SP40;AMMNS-N02SP40-SS7;MNS_N02_1_GPON_VLAN_118_119_120-ALC;1/1/3/3
EQP0000000029454738;I14G01301;CTO - OPTAP-B-85/15;AMMNS_G1I14;RUA ARTUR REIS MANAUS SANTO ANTONIO 69029370 AM 431;MANAUS;-3.114370300;-60.047737400;G0;AMMNS-I14SP163;AMMNS-I14SP163-SS5;MNS_I14_1_GPON_VLAN_185_186_187-ALC;1/1/8/1
EQP0000000029468404;I06G01308;CTO - PAD TELEFONICA;AMMNS_G1I06;RUA VILA ALBA MANAUS LIRIO DO VALE 69038680 AM SN;MANAUS;-3.071216200;-60.072611400;G0;AMMNS-I06SP164;AMMNS-I06SP164-SS4;MNS_I06_1_GPON_VLAN_136_137_138-ALC;1/1/7/11
EQP0000000029437405;I01G02154;CTO - PAD TELEFONICA;AMMNS_G1I01;AVENIDA MARIO YPIRANGA MANAUS ADRIANOPOLIS 69057000 AM SN;MANAUS;-3.108682000;-60.013135400;G0;AMMNS-I01SP270;AMMNS-I01SP270-SS2;MNS_I01_2_GPON_VLAN_103_104_105-ALC;1/1/5/13
EQP0000000038295135;I01GP1191;MINI CDOE 1:2 + 1:8 PRECON SELADA 60/40;AMMNS_G1I01;AVENIDA EPHIGENIO SALLES MANAUS ALEIXO 69060020 AM 2240;MANAUS;-3.087724700;-59.997084500;GP;AMMNS-I01SP149;AMMNS-I01SP149-SS7;MNS_I01_1_GPON_VLAN_100_101_102-ALC;1/1/8/3
EQP0000000029475361;I15G01120;CTO - OPTAP-B-90/10;AMMNS_G1I15;RUA ADALBERTO NOGUEIRA MANAUS JAPIIM 69078430 AM 137;MANAUS;-3.122082200;-59.986202100;G0;AMMNS-I15SP140;AMMNS-I15SP140-SS8;MNS_I15_1_GPON_VLAN_173_174_175-ALC;1/1/5/15
EQP0000000029458162;I05G02328;CTO - OPTAP-B-90/10;AMMNS_G1I05;RUA LORIS CORDOVIL MANAUS ALVORADA 69043010 AM 5;MANAUS;-3.080105300;-60.035229500;G0;AMMNS-I05SP291;AMMNS-I05SP291-SS8;MNS_I05_2_GPON_VLAN_127_128_129-ALC;1/1/4/5
EQP0000000029450965;N02G01529;CTO - PAD TELEFONICA;AMMNS_G1N02;AVENIDA CODAJAS MANAUS PRACA 14 DE JANEIRO 69020515 AM 1428;MANAUS;-3.119849000;-60.010542100;G0;AMMNS-N02SP192;AMMNS-N02SP192-SS1;MNS_N02_1_GPON_VLAN_118_119_120-ALC;1/1/8/5
EQP0000000029468366;I01G0233;CTO - PAD TELEFONICA;AMMNS_G1I01;TRAVESSA MAROMBA MANAUS CHAPADA 69050150 AM 116;MANAUS;-3.099026600;-60.025050200;G0;AMMNS-I01SP30;AMMNS-I01SP30-SS1;MNS_I01_1_GPON_VLAN_100_101_102-ALC;1/1/1/15
EQP0000000041148749;I15G02053;CTO SPLITTER 1 8;AMMNS_G1I15;RUA CORONEL FERREIRA SOBRINHO MANAUS PETROPOLIS 69079300 AM 67;MANAUS;-3.116476300;-60.001604500;G0;AMMNS-I15SP257;AMMNS-I15SP257-SS5;MNS_I15_2_GPON_VLAN_176_177_178-ALC;1/1/4/9
EQP0000000029475850;I15GP173;TO;AMMNS_G1I15;RUA ALBERTO CARREIRA MANAUS JAPIIM 69077783 AM 132;MANAUS;-3.105566300;-59.964024800;GP;AMMNS-I15SP22;AMMNS-I15SP22-SS5;MNS_I15_1_GPON_VLAN_173_174_175-ALC;1/1/1/10
EQP0000000029467365;N07GPT1093;CTO - PAD TELEFONICA;AMMNS_G1N07;ALAMEDA CARLOTA BONFIM MANAUS PONTA NEGRA 69037145 AM 3269;MANAUS;-3.046699500;-60.081490000;GPT;AMMNS-N07SP137;AMMNS-N07SP137-SS5;MNS_N07_1_GPON_VLAN_130_131_132-ALC;1/1/6/13
EQP0000000029463992;N07GPC192;TO;AMMNS_G1N07;AVENIDA CORONEL TEIXEIRA MANAUS NOVA ESPERANCA 69037473 AM 5513;MANAUS;-3.082888300;-60.071994700;GP;AMMNS-N07SP24;AMMNS-N07SP24-SS8;MNS_N07_1_GPON_VLAN_130_131_132-ALC;1/1/1/15
EQP0000000029462297;N07GPT1097;CTO - PAD TELEFONICA;AMMNS_G1N07;ALAMEDA CARLOTA BONFIM MANAUS PONTA NEGRA 69037145 AM 3269;MANAUS;-3.046095800;-60.081946100;GPT;AMMNS-N07SP138;AMMNS-N07SP138-SS1;MNS_N07_1_GPON_VLAN_130_131_132-ALC;1/1/6/14
EQP0000000029476163;N02GP305;TO;AMMNS_G1N02;RUA EMILIO MOREIRA MANAUS CENTRO 69020245 AM 1655;MANAUS;-3.117854400;-60.015740400;GP;AMMNS-N02SP39;AMMNS-N02SP39-SS1;MNS_N02_1_GPON_VLAN_118_119_120-ALC;1/1/3/2
EQP0000000029439885;M04G01552;CTO - PAD TELEFONICA;AMMNS_G1M04;RUA CARLOS LECOR MANAUS PARQUE 10 DE NOVEMBRO 69055430 AM 1043;MANAUS;-3.080392600;-60.009127700;G0;AMMNS-M04SP194;AMMNS-M04SP194-SS8;MNS_M04_1_GPON_VLAN_106_107_108-ALC;1/1/7/6
EQP0000000029476121;I15G0522;CTO - OPTAP-B-60/40;AMMNS_G1I15;AVENIDA BURITI MANAUS DISTRITO INDUSTRIAL I 69075000 AM 404;MANAUS;-3.119867300;-59.976975300;G0;AMMNS-I15SP66;AMMNS-I15SP66-SS2;MNS_I15_1_GPON_VLAN_173_174_175-ALC;1/1/3/7
EQP0000000038322662;M04GP608;MINI CDOE 1:2 + 1:8 PRECON SELADA 60/40;AMMNS_G1M04;RUA DOM JACKSON D. RODRIGUES MANAUS FLORES 69058833 AM 930;MANAUS;-3.060115800;-60.016117400;GP;AMMNS-M04SP76;AMMNS-M04SP76-SS8;MNS_M04_1_GPON_VLAN_106_107_108-ALC;1/1/3/8
EQP0000000029437828;I14G02624;CTO - OPTAP-B-90/10;AMMNS_G1I14;RUA J. O'CALLAGHAM MANAUS SAO JORGE 69033100 AM 320;MANAUS;-3.112138900;-60.042208100;G0;AMMNS-I14SP328;AMMNS-I14SP328-SS8;MNS_I14_2_GPON_VLAN_188_189_190-ALC;1/1/6/12
EQP0000000029437164;I06GPR308;TO;AMMNS_G1I06;RUA RAIMUNDO NONATO DE CASTRO MANAUS PONTA NEGRA 69037042 AM 773;MANAUS;-3.089096800;-60.070441900;GP;AMMNS-I06SP39;AMMNS-I06SP39-SS4;MNS_I06_1_GPON_VLAN_136_137_138-ALC;1/1/3/1
EQP0000000029462308;N07GPT1111;CTO - PAD TELEFONICA;AMMNS_G1N07;ALAMEDA CARLOTA BONFIM MANAUS PONTA NEGRA 69037145 AM 3269;MANAUS;-3.045564500;-60.090372700;GPT;AMMNS-N07SP139;AMMNS-N07SP139-SS7;MNS_N07_1_GPON_VLAN_130_131_132-ALC;1/1/6/15
EQP0000000029435125;I13G0175;CTO - OPTAP-B-90/10;AMMNS_G1I13;RUA FRIBURGO MANAUS CIDADE NOVA 69095200 AM 2;MANAUS;-3.028431700;-59.974239200;G0;AMMNS-I13SP22;AMMNS-I13SP22-SS7;MNS_I13_1_GPON_VLAN_179_180_181-ALC;1/1/1/13
EQP0000000029439643;I01G0239;CTO - PAD TELEFONICA;AMMNS_G1I01;RUA CAIO GRACO MANAUS CHAPADA 69050610 AM 25;MANAUS;-3.097070200;-60.024244600;G0;AMMNS-I01SP30;AMMNS-I01SP30-SS7;MNS_I01_1_GPON_VLAN_100_101_102-ALC;1/1/1/15
EQP0000000029435171;I14G0240;CTO - OPTAP-B-90/10;AMMNS_G1I14;RUA TEOTONIO VILELA MANAUS COMPENSA 69035550 AM 1030;MANAUS;-3.107600400;-60.062282000;G0;AMMNS-I14SP30;AMMNS-I14SP30-SS8;MNS_I14_1_GPON_VLAN_185_186_187-ALC;1/1/2/8
EQP0000000038588083;N03GP1548;MINI CDOE 1:2 + 1:8 PRECON SELADA 60/40;AMMNS_G1N03;RUA MISUSHIRO MANAUS PARQUE 10 DE NOVEMBRO 69054672 AM 170;MANAUS;-3.071230200;-59.994922200;GP;AMMNS-N03SP194;AMMNS-N03SP194-SS4;MNS_N03_1_GPON_VLAN_112_113_114_ALC;1/1/8/14
EQP0000000029467764;I01G01079;CTO - PAD TELEFONICA;AMMNS_G1I01;RUA RIO ITANNANA MANAUS NOSSA SENHORA DAS GRACAS 69053040 AM 115;MANAUS;-3.107862200;-60.018744700;G0;AMMNS-I01SP135;AMMNS-I01SP135-SS7;MNS_I01_1_GPON_VLAN_100_101_102-ALC;1/1/7/5
EQP0000000029476411;I01GP2149;TO;AMMNS_G1I01;RUA SALVADOR MANAUS ADRIANOPOLIS 69057040 AM 440;MANAUS;-3.108046300;-60.012398100;GP;AMMNS-I01SP269;AMMNS-I01SP269-SS5;MNS_I01_2_GPON_VLAN_103_104_105-ALC;1/1/5/12
EQP0000000029463397;N02G0190;CTO - PAD TELEFONICA;AMMNS_G1N02;RUA TAPAJOS MANAUS CENTRO 69010150 AM 536;MANAUS;-3.125014700;-60.022590700;G0;AMMNS-N02SP24;AMMNS-N02SP24-SS6;MNS_N02_1_GPON_VLAN_118_119_120-ALC;1/1/2/3
EQP0000000029452971;N02G0761;CTO - PAD TELEFONICA;AMMNS_G1N02;RUA GUILHERME MOREIRA MANAUS CENTRO 69005300 AM 262;MANAUS;-3.135730900;-60.023341300;G0;AMMNS-N02SP96;AMMNS-N02SP96-SS1;MNS_N02_1_GPON_VLAN_118_119_120-ALC;1/1/4/5
EQP0000000029475713;N03GP1057;TO;AMMNS_G1N03;RUA JOSE BONAPARTE MANAUS PARQUE 10 DE NOVEMBRO 69054595 AM 23;MANAUS;-3.074782800;-60.009128200;GP;AMMNS-N03SP133;AMMNS-N03SP133-SS1;MNS_N03_1_GPON_VLAN_112_113_114_ALC;1/1/5/11
EQP0000000029439460;I05G01706;CTO - PAD TELEFONICA;AMMNS_G1I05;RUA FRANCISCO ORELLANA MANAUS DOM PEDRO I 69040010 AM 172;MANAUS;-3.083458900;-60.044667600;G0;AMMNS-I05SP214;AMMNS-I05SP214-SS2;MNS_I05_2_GPON_VLAN_127_128_129-ALC;1/1/1/7
EQP0000000029466732;I15G01119;CTO - OPTAP-B-90/10;AMMNS_G1I15;RUA ILIDIO LOPES MANAUS JAPIIM 69078530 AM 70;MANAUS;-3.122500000;-59.987179600;G0;AMMNS-I15SP140;AMMNS-I15SP140-SS7;MNS_I15_1_GPON_VLAN_173_174_175-ALC;1/1/5/15
EQP0000000029452688;N02G01176;CTO - PAD TELEFONICA;AMMNS_G1N02;RUA RAUL ZAGURY MANAUS SAO FRANCISCO 69079050 AM 195;MANAUS;-3.112962300;-60.006028900;G0;AMMNS-N02SP147;AMMNS-N02SP147-SS8;MNS_N02_1_GPON_VLAN_118_119_120-ALC;1/1/7/4
EQP0000000029453271;N02G01619;CTO - PAD TELEFONICA;AMMNS_G1N02;AVENIDA PARINTINS MANAUS CACHOEIRINHA 69065050 AM 981;MANAUS;-3.123132400;-60.001267700;G0;AMMNS-N02SP203;AMMNS-N02SP203-SS3;MNS_N02_1_GPON_VLAN_118_119_120-ALC;1/1/8/16
EQP0000000029439530;M04GPT1974;CTO - PAD TELEFONICA;AMMNS_G1M04;RUA BARAO DE INDAIA MANAUS FLORES 69058448 AM SN;MANAUS;-3.062358600;-60.015399500;GPT;AMMNS-M04SP247;AMMNS-M04SP247-SS6;MNS_M04_2_GPON_VLAN_109_110_111-ALC;1/1/1/8
EQP0000000029441934;N03G0581;CTO - OPTAP;AMMNS_G1N03;RUA ELIN VIRTONEN MANAUS PARQUE 10 DE NOVEMBRO 69054694 AM 35;MANAUS;-3.071595100;-60.005206600;G0;AMMNS-N03SP73;AMMNS-N03SP73-SS5;MNS_N03_1_GPON_VLAN_112_113_114_ALC;1/1/4/13
EQP0000000038321505;M04GP801;MINI CDOE 1:2 + 1:8 PRECON SELADA 60/40;AMMNS_G1M04;RUA JORGE LUIZ MILANI MANAUS FLORES 69058828 AM 640;MANAUS;-3.056659200;-60.020562200;GP;AMMNS-M04SP101;AMMNS-M04SP101-SS1;MNS_M04_1_GPON_VLAN_106_107_108-ALC;1/1/3/13
EQP0000000029465192;I16G0438;CTO - OPTAP-B-90/10;AMMNS_G1I16;RUA CORDILHEIRA DOS ANDES MANAUS DA PAZ 69048170 AM 121;MANAUS;-3.059591500;-60.029926000;G0;AMMNS-I16SP55;AMMNS-I16SP55-SS6;MNS_I16_1_GPON_VLAN_170_171_172-ALC;1/1/3/5
EQP0000000029462524;I01G02268;CTO - PAD TELEFONICA;AMMNS_G1I01;AVENIDA NHAMUNDA MANAUS PRACA 14 DE JANEIRO 69020190 AM SN;MANAUS;-3.120378300;-60.018819800;G0;AMMNS-I01SP284;AMMNS-I01SP284-SS4;MNS_I01_2_GPON_VLAN_103_104_105-ALC;1/1/6/11
EQP0000000029439485;I01G0267;CTO - PAD TELEFONICA;AMMNS_G1I01;RUA JOSE DA SILVA LIMA MANAUS SAO GERALDO 69053360 AM 101;MANAUS;-3.110267500;-60.025151200;G0;AMMNS-I01SP34;AMMNS-I01SP34-SS3;MNS_I01_1_GPON_VLAN_100_101_102-ALC;1/1/2/3
EQP0000000029468745;I01G0480;CTO - PAD TELEFONICA;AMMNS_G1I01;RUA RIO JAVARI MANAUS NOSSA SENHORA DAS GRACAS 69053110 AM SN;MANAUS;-3.103127900;-60.022930700;G0;AMMNS-I01SP60;AMMNS-I01SP60-SS8;MNS_I01_1_GPON_VLAN_100_101_102-ALC;1/1/3/10
EQP0000000029464753;I06G02041;CTO - OPTAP - B;AMMNS_G1I06;RUA HIDELBRANDO ANTONY MANAUS ALVORADA 69042125 AM 460;MANAUS;-3.074498000;-60.057346300;G0;AMMNS-I06SP256;AMMNS-I06SP256-SS1;MNS_I06_2_GPON_VLAN_139_140_141-ALC;1/1/5/9
EQP0000000029462594;I06G01441;CTO - PAD TELEFONICA;AMMNS_G1I06;AVENIDA DO FUTURO MANAUS TARUMA 69041005 AM 30;MANAUS;-3.055065700;-60.055152300;G0;AMMNS-I06SP181;AMMNS-I06SP181-SS1;MNS_I06_1_GPON_VLAN_136_137_138-ALC;1/1/8/12
EQP0000000040270415;I01G02596;CTO SPLITTER 1 8;AMMNS_G1I01;RUA BANGU MANAUS PETROPOLIS 69067181 AM SN;MANAUS;-3.106287800;-59.993446600;G0;AMMNS-I01SP325;AMMNS-I01SP325-SS4;BR-AMMNS01-OLT03-NK;1/1/1/5
EQP0000000029463704;M04GP853;TO;AMMNS_G1M04;RUA DOM JACKSON D. RODRIGUES MANAUS FLORES 69058833 AM SN;MANAUS;-3.060470500;-60.021271600;GP;AMMNS-M04SP107;AMMNS-M04SP107-SS5;MNS_M04_1_GPON_VLAN_106_107_108-ALC;1/1/4/3
EQP0000000029456586;I14G0633;CTO - OPTAP - B;AMMNS_G1I14;RUA MONTE ALEGRE MANAUS COMPENSA 69035260 AM 57;MANAUS;-3.107032800;-60.058283000;G0;AMMNS-I14SP80;AMMNS-I14SP80-SS1;MNS_I14_1_GPON_VLAN_185_186_187-ALC;1/1/4/15
EQP0000000103027209;I06GP321;MINI CDOE 1:2 + 1:8 PRECON SELADA 60/40;AMMNS_G1I06;RUA RAIMUNDO NONATO DE CASTRO MANAUS PONTA NEGRA 69037042 AM 773;MANAUS;-3.089055000;-60.070448100;GP;AMMNS-I06SP41;AMMNS-I06SP41-SS1;MNS_I06_1_GPON_VLAN_136_137_138-ALC;1/1/3/3
EQP0000000029453323;I05G0201;CTO - PAD TELEFONICA;AMMNS_G1I05;RUA VALE DO PO MANAUS NOVA ESPERANCA 69037460 AM 23;MANAUS;-3.085725400;-60.058745100;G0;AMMNS-I05SP26;AMMNS-I05SP26-SS1;MNS_I05_1_GPON_VLAN_124_125_126-ALC;1/1/2/1
EQP0000000029452963;N02G0767;CTO - PAD TELEFONICA;AMMNS_G1N02;AVENIDA EDUARDO RIBEIRO MANAUS CENTRO 69005160 AM 153;MANAUS;-3.135835100;-60.024828100;G0;AMMNS-N02SP96;AMMNS-N02SP96-SS7;MNS_N02_1_GPON_VLAN_118_119_120-ALC;1/1/4/5
EQP0000000029466220;I16G0006;CTO - OPTAP-B-90/10;AMMNS_G1I16;RUA LIRIO DO VALE MANAUS DA PAZ 69049635 AM 17;MANAUS;-3.047359600;-60.034311300;G0;AMMNS-I16SP1;AMMNS-I16SP1-SS6;MNS_I16_1_GPON_VLAN_170_171_172-ALC;1/1/1/1
EQP0000000029437004;I01G01507;CTO - PAD TELEFONICA;AMMNS_G1I01;RUA SAO BONIFACIO MANAUS ALEIXO 69060005 AM SN;MANAUS;-3.096988500;-60.005525300;G0;AMMNS-I01SP189;AMMNS-I01SP189-SS3;MNS_I01_2_GPON_VLAN_103_104_105-ALC;1/1/1/11
EQP0000000029439878;M04G01560;CTO - PAD TELEFONICA;AMMNS_G1M04;RUA DOMINGOS LEAO MANAUS PARQUE 10 DE NOVEMBRO 69055450 AM 1110;MANAUS;-3.079699100;-60.009113700;G0;AMMNS-M04SP195;AMMNS-M04SP195-SS8;MNS_M04_1_GPON_VLAN_106_107_108-ALC;1/1/7/7
EQP0000000029441389;N03G0479;CTO - OPTAP;AMMNS_G1N03;RUA JOSE PINTO CORREA MANAUS PARQUE 10 DE NOVEMBRO 69054734 AM SN;MANAUS;-3.070175800;-60.003233700;G0;AMMNS-N03SP60;AMMNS-N03SP60-SS7;MNS_N03_1_GPON_VLAN_112_113_114_ALC;1/1/3/16
EQP0000000029440575;N03G01419;CTO - OPTAP;AMMNS_G1N03;AVENIDA COSME FERREIRA MANAUS ALEIXO 69083000 AM 342;MANAUS;-3.089640200;-59.987186000;G0;AMMNS-N03SP178;AMMNS-N03SP178-SS3;MNS_N03_1_GPON_VLAN_112_113_114_ALC;1/1/7/14
EQP0000000038311147;I01GP2129;MINI CDOE 1:2 + 1:8 PRECON SELADA 60/40;AMMNS_G1I01;RUA SALVADOR MANAUS ADRIANOPOLIS 69057040 AM 440;MANAUS;-3.108107400;-60.012151700;GP;AMMNS-I01SP267;AMMNS-I01SP267-SS1;MNS_I01_2_GPON_VLAN_103_104_105-ALC;1/1/5/10
EQP0000000029457973;I05G02435;CTO - OPTAP-B-70/30;AMMNS_G1I05;RUA PROFESSORA MARIA DE LOURDES MANAUS ALVORADA 69043670 AM 62;MANAUS;-3.081374600;-60.039636800;G0;AMMNS-I05SP305;AMMNS-I05SP305-SS3;MNS_I05_2_GPON_VLAN_127_128_129-ALC;1/1/4/12
EQP0000000029473453;I15G0521;CTO - OPTAP - B;AMMNS_G1I15;AVENIDA BURITI MANAUS DISTRITO INDUSTRIAL I 69075000 AM 1219;MANAUS;-3.118490300;-59.975162100;G0;AMMNS-I15SP66;AMMNS-I15SP66-SS1;MNS_I15_1_GPON_VLAN_173_174_175-ALC;1/1/3/7
EQP0000000029451346;I05G0039;CTO - PAD TELEFONICA;AMMNS_G1I05;RUA PROJETADA IV MANAUS SANTO AGOSTINHO 69000000 AM 88;MANAUS;-3.094674000;-60.062881100;G0;AMMNS-I05SP5;AMMNS-I05SP5-SS7;MNS_I05_1_GPON_VLAN_124_125_126-ALC;1/1/1/5
EQP0000000029440402;N03G01450;CTO - OPTAP;AMMNS_G1N03;RUA WALDEMAR JARDIM MAUES MANAUS NOVO ALEIXO 69098455 AM SN;MANAUS;-3.064959400;-59.981497000;G0;AMMNS-N03SP182;AMMNS-N03SP182-SS2;MNS_N03_1_GPON_VLAN_112_113_114_ALC;1/1/8/2
EQP0000000029462708;N07GPT519;CTO - PAD TELEFONICA;AMMNS_G1N07;AVENIDA JOSE AUGUSTO LOUREIRO MANAUS PONTA NEGRA 69037225 AM SN;MANAUS;-3.049382000;-60.096965000;GPT;AMMNS-N07SP65;AMMNS-N07SP65-SS7;MNS_N07_1_GPON_VLAN_130_131_132-ALC;1/1/4/2
EQP0000000029464625;I15G01655;CTO - OPTAP-B-90/10;AMMNS_G1I15;RUA GUILHERME DE ORANGE MANAUS JAPIIM 69077120 AM 12;MANAUS;-3.117253700;-59.986334900;G0;AMMNS-I15SP207;AMMNS-I15SP207-SS7;MNS_I15_1_GPON_VLAN_173_174_175-ALC;1/1/8/15
EQP0000000029462104;N03GP464;TO;AMMNS_G1N03;RUA DIAMANTINA MANAUS FLORES 69058127 AM 1073;MANAUS;-3.068576200;-60.008527800;GP;AMMNS-N03SP58;AMMNS-N03SP58-SS8;MNS_N03_1_GPON_VLAN_112_113_114_ALC;1/1/3/14
EQP0000000029473473;I15G01377;CTO - OPTAP - B;AMMNS_G1I15;RUA DANILO CORREA MANAUS RAIZ 69068740 AM SN;MANAUS;-3.111859800;-59.990382600;G0;AMMNS-I15SP173;AMMNS-I15SP173-SS1;MNS_I15_1_GPON_VLAN_173_174_175-ALC;1/1/7/5
EQP0000000029465931;I01G0392;CTO - PAD TELEFONICA;AMMNS_G1I01;RUA RIO EIRU MANAUS NOSSA SENHORA DAS GRACAS 69053520 AM SN;MANAUS;-3.103333200;-60.020712100;G0;AMMNS-I01SP49;AMMNS-I01SP49-SS8;MNS_I01_1_GPON_VLAN_100_101_102-ALC;1/1/2/15
EQP0000000029452325;I05G0171;CTO - PAD TELEFONICA;AMMNS_G1I05;BECO SANTO HONOFRE MANAUS SANTO AGOSTINHO 69036587 AM 69;MANAUS;-3.092242300;-60.062151800;G0;AMMNS-I05SP22;AMMNS-I05SP22-SS3;MNS_I05_1_GPON_VLAN_124_125_126-ALC;1/1/1/13
EQP0000000029452398;N02G0595;CTO - PAD TELEFONICA;AMMNS_G1N02;RUA LUIZ ANTONY MANAUS CENTRO 69010100 AM 247;MANAUS;-3.130475100;-60.027723000;G0;AMMNS-N02SP75;AMMNS-N02SP75-SS3;MNS_N02_1_GPON_VLAN_118_119_120-ALC;1/1/3/14
EQP0000000029437219;N03GP1205;TO;AMMNS_G1N03;RUA JOSE ROMAO MANAUS SAO JOSE OPERARIO 69085288 AM 215;MANAUS;-3.071809100;-59.971176000;GP;AMMNS-N03SP151;AMMNS-N03SP151-SS5;MNS_N03_2_GPON_VLAN_115_116_117_ALC;1/1/1/16
EQP0000000029476178;M04GP310;TO;AMMNS_G1M04;RUA PROFESSORA CACILDA PEDROSO MANAUS ALVORADA 69048340 AM 700;MANAUS;-3.066178700;-60.034911000;GP;AMMNS-M04SP39;AMMNS-M04SP39-SS6;MNS_M04_1_GPON_VLAN_106_107_108-ALC;1/1/2/7
EQP0000000029441255;N03G01280;CTO - OPTAP;AMMNS_G1N03;RUA NELSON BATISTA DE SALES MANAUS ALEIXO 69083120 AM 406;MANAUS;-3.074129500;-59.980454400;G0;AMMNS-N03SP160;AMMNS-N03SP160-SS8;MNS_N03_1_GPON_VLAN_112_113_114_ALC;1/1/6/12
EQP0000000029463463;N07GPT703;CTO - PAD TELEFONICA;AMMNS_G1N07;RUA MEDITERRANEO MANAUS PONTA NEGRA 69037155 AM 621;MANAUS;-3.030774800;-60.088904100;GPT;AMMNS-N07SP88;AMMNS-N07SP88-SS7;MNS_N07_1_GPON_VLAN_130_131_132-ALC;1/1/5/6
EQP0000000029454017;I14G01006;CTO - OPTAP-B-90/10;AMMNS_G1I14;RUA CABO JOSE AYRTON MANAUS COMPENSA 69030160 AM 36;MANAUS;-3.106321100;-60.051304600;G0;AMMNS-I14SP126;AMMNS-I14SP126-SS6;MNS_I14_1_GPON_VLAN_185_186_187-ALC;1/1/6/12
EQP0000000073374288;I15G02111;CTO SPLITTER 1 8;AMMNS_G1I15;RUA BENJAMIN CONSTANT MANAUS PETROPOLIS 69063010 AM 116;MANAUS;-3.113493900;-59.997517400;G0;AMMNS-I15SP264;AMMNS-I15SP264-SS7;MNS_I15_2_GPON_VLAN_176_177_178-ALC;1/1/4/16
EQP0000000029454582;I13G01257;CTO - OPTAP - B;AMMNS_G1I13;RUA SARGENTO ADAO MANAUS FLORES 69028406 AM 136;MANAUS;-3.050415000;-60.013574000;G0;AMMNS-I13SP158;AMMNS-I13SP158-SS1;MNS_I13_1_GPON_VLAN_179_180_181-ALC;1/1/6/14
EQP0000000029468652;M04G01343;CTO - PAD TELEFONICA;AMMNS_G1M04;RUA VINICIUS DE SOUZA LIMA MANAUS PARQUE 10 DE NOVEMBRO 69055360 AM 545;MANAUS;-3.083516200;-60.012091900;G0;AMMNS-M04SP168;AMMNS-M04SP168-SS7;MNS_M04_1_GPON_VLAN_106_107_108-ALC;1/1/6/3
EQP0000000029462839;N02G0270;CTO - PAD TELEFONICA;AMMNS_G1N02;AVENIDA GETULIO VARGAS MANAUS CENTRO 69020011 AM 1154;MANAUS;-3.124583800;-60.020941400;G0;AMMNS-N02SP34;AMMNS-N02SP34-SS6;MNS_N02_1_GPON_VLAN_118_119_120-ALC;1/1/2/13
EQP0000000029475183;N03GPT1458;CTO - OPTAP;AMMNS_G1N03;RUA WALDEMAR JARDIM MAUES MANAUS NOVO ALEIXO 69098455 AM 697;MANAUS;-3.065262500;-59.985579500;GPT;AMMNS-N03SP183;AMMNS-N03SP183-SS2;MNS_N03_1_GPON_VLAN_112_113_114_ALC;1/1/8/3
EQP0000000029461938;N07GPT767;CTO - PAD TELEFONICA;AMMNS_G1N07;AVENIDA FREDERICO BAIRD MANAUS PONTA NEGRA 69037144 AM 964;MANAUS;-3.035382800;-60.081185900;GPT;AMMNS-N07SP96;AMMNS-N07SP96-SS7;MNS_N07_1_GPON_VLAN_130_131_132-ALC;1/1/5/14
EQP0000000040281069;I01G02604;CTO SPLITTER 1 8;AMMNS_G1I01;RUA IZABEL MOTTA MANAUS PETROPOLIS 69067280 AM 159;MANAUS;-3.104152200;-59.990399400;G0;AMMNS-I01SP326;AMMNS-I01SP326-SS4;BR-AMMNS01-OLT03-NK;1/1/1/6
EQP0000000029439809;I01G0030;CTO - PAD TELEFONICA;AMMNS_G1I01;AVENIDA DOUTOR THEOMARIO PINTO DA COSTA MANAUS CHAPADA 69050055 AM 1905;MANAUS;-3.093264600;-60.033842400;G0;AMMNS-I01SP4;AMMNS-I01SP4-SS6;MNS_I01_1_GPON_VLAN_100_101_102-ALC;1/1/1/4
EQP0000000029437702;I14G02526;CTO - OPTAP-B-90/10;AMMNS_G1I14;RUA PADRE SEVERO MANAUS SAO JORGE 69033680 AM 533;MANAUS;-3.107996600;-60.041904300;G0;AMMNS-I14SP316;AMMNS-I14SP316-SS6;MNS_I14_2_GPON_VLAN_188_189_190-ALC;1/1/6/4
EQP0000000029468376;I01G0034;CTO - PAD TELEFONICA;AMMNS_G1I01;AVENIDA DJALMA BATISTA MANAUS SAO GERALDO 69053355 AM 149;MANAUS;-3.091465200;-60.024335800;G0;AMMNS-I01SP5;AMMNS-I01SP5-SS2;MNS_I01_1_GPON_VLAN_100_101_102-ALC;1/1/1/5
EQP0000000029451706;I05G0542;CTO - PAD TELEFONICA;AMMNS_G1I05;RUA DUARTE DA COSTA MANAUS DOM PEDRO I 69040670 AM 422;MANAUS;-3.085995700;-60.042656500;G0;AMMNS-I05SP68;AMMNS-I05SP68-SS6;MNS_I05_1_GPON_VLAN_124_125_126-ALC;1/1/3/6
EQP0000000029435041;I14G0222;CTO - OPTAP-B-90/10;AMMNS_G1I14;RUA MARIA AMORIM NEVES MANAUS COMPENSA 69035360 AM 12;MANAUS;-3.104370600;-60.062747300;G0;AMMNS-I14SP28;AMMNS-I14SP28-SS6;MNS_I14_1_GPON_VLAN_185_186_187-ALC;1/1/2/6
EQP0000000029467525;N02G0263;CTO - PAD TELEFONICA;AMMNS_G1N02;AVENIDA TARUMA MANAUS PRACA 14 DE JANEIRO 69020000 AM 791;MANAUS;-3.123181400;-60.019377800;G0;AMMNS-N02SP33;AMMNS-N02SP33-SS7;MNS_N02_1_GPON_VLAN_118_119_120-ALC;1/1/2/12
EQP0000000040709178;I15G01938;CTO SPLITTER 1 8;AMMNS_G1I15;RUA DANIEL SEVALHO MANAUS RAIZ 69068110 AM 258;MANAUS;-3.127545500;-59.996000200;G0;AMMNS-I15SP243;AMMNS-I15SP243-SS2;MNS_I15_2_GPON_VLAN_176_177_178-ALC;1/1/3/11
EQP0000000029467016;I06G02165;CTO - OPTAP-B-85/15;AMMNS_G1I06;RUA OLINTO C. VASCONCELOS MANAUS PLANALTO 69044260 AM 1;MANAUS;-3.071247400;-60.058627800;G0;AMMNS-I06SP271;AMMNS-I06SP271-SS5;MNS_I06_2_GPON_VLAN_139_140_141-ALC;1/1/6/1
EQP0000000029466067;I15G01126;CTO - OPTAP-B-90/10;AMMNS_G1I15;RUA FRANCISCO FERNANDO MANAUS JAPIIM 69078460 AM 75;MANAUS;-3.119910800;-59.988977400;G0;AMMNS-I15SP141;AMMNS-I15SP141-SS6;MNS_I15_1_GPON_VLAN_173_174_175-ALC;1/1/5/16
EQP0000000029437085;I01G01466;CTO - PAD TELEFONICA;AMMNS_G1I01;RUA CONDE DE PALMELA MANAUS PARQUE 10 DE NOVEMBRO 69055728 AM 56;MANAUS;-3.092505600;-60.013266300;G0;AMMNS-I01SP184;AMMNS-I01SP184-SS2;MNS_I01_2_GPON_VLAN_103_104_105-ALC;1/1/1/6
EQP0000000029440921;N03GPT1382;CTO - OPTAP;AMMNS_G1N03;RUA NOCA CABRAL DOS ANJOS MANAUS ALEIXO 69083011 AM 1;MANAUS;-3.078354300;-59.987325900;GPT;AMMNS-N03SP173;AMMNS-N03SP173-SS6;MNS_N03_1_GPON_VLAN_112_113_114_ALC;1/1/7/9
EQP0000000041224498;I01G02670;CTO SPLITTER 1 8;AMMNS_G1I01;RUA ARNOLDO CARPINTEIRO PERES MANAUS PETROPOLIS 69067030 AM 81;MANAUS;-3.108583600;-59.993917000;G0;AMMNS-I01SP334;AMMNS-I01SP334-SS6;BR-AMMNS01-OLT03-NK;1/1/1/14
EQP0000000029439620;I05G01651;CTO - PAD TELEFONICA;AMMNS_G1I05;RUA CESAR EMIR DUARTE MANAUS DOM PEDRO I 69042660 AM 7;MANAUS;-3.084720800;-60.048126500;G0;AMMNS-I05SP207;AMMNS-I05SP207-SS3;MNS_I05_1_GPON_VLAN_124_125_126-ALC;1/1/8/16
EQP0000000029474919;I13G01603;CTO - OPTAP-B-70/30;AMMNS_G1I13;RUA NORUEGA MANAUS FLORES 69028050 AM 578;MANAUS;-3.049582200;-60.000803100;G0;AMMNS-I13SP201;AMMNS-I13SP201-SS3;MNS_I13_1_GPON_VLAN_179_180_181-ALC;1/1/8/4
EQP0000000029464993;I06G01802;CTO - OPTAP-B-60/40;AMMNS_G1I06;RUA GEISA CARDOSO VASQUES MANAUS NOVA ESPERANCA 69037555 AM 30;MANAUS;-3.083107700;-60.060940500;G0;AMMNS-I06SP226;AMMNS-I06SP226-SS2;MNS_I06_2_GPON_VLAN_139_140_141-ALC;1/1/4/4
EQP0000000029435070;I13G0162;CTO - OPTAP-B-60/40;AMMNS_G1I13;RUA CURIO MANAUS CIDADE NOVA 69095060 AM 153;MANAUS;-3.028990300;-59.977976800;G0;AMMNS-I13SP21;AMMNS-I13SP21-SS2;MNS_I13_1_GPON_VLAN_179_180_181-ALC;1/1/1/12
EQP0000000029457092;I05G01752;CTO - OPTAP-B-90/10;AMMNS_G1I05;RUA WALDEMIR CORDEIRO MANAUS ALVORADA 69042160 AM 339;MANAUS;-3.073425600;-60.050226000;G0;AMMNS-I05SP219;AMMNS-I05SP219-SS8;MNS_I05_2_GPON_VLAN_127_128_129-ALC;1/1/1/16
EQP0000000029475253;I15G01335;CTO - OPTAP-B-90/10;AMMNS_G1I15;RUA JOAO BOSCO FARECO MANAUS JAPIIM 69078350 AM 114;MANAUS;-3.111344600;-59.988616500;G0;AMMNS-I15SP167;AMMNS-I15SP167-SS7;MNS_I15_1_GPON_VLAN_173_174_175-ALC;1/1/7/2
EQP0000000029455856;I13G01843;CTO - OPTAP-B-70/30;AMMNS_G1I13;RUA VISCONDE DE CAETE MANAUS FLORES 69058690 AM 1068;MANAUS;-3.049155000;-59.989286600;G0;AMMNS-I13SP231;AMMNS-I13SP231-SS3;MNS_I13_2_GPON_VLAN_182_183_184-ALC;1/1/1/8
EQP0000000029462775;N02G0883;CTO - PAD TELEFONICA;AMMNS_G1N02;RUA MARQUES DE SANTA CRUZ MANAUS CENTRO 69005050 AM 255;MANAUS;-3.138742100;-60.024459500;G0;AMMNS-N02SP111;AMMNS-N02SP111-SS3;MNS_N02_1_GPON_VLAN_118_119_120-ALC;1/1/5/4
EQP0000000029467685;N07GPT720;CTO - PAD TELEFONICA;AMMNS_G1N07;AVENIDA BOSQUE DAS PALMAS MANAUS PONTA NEGRA 69037147 AM SN;MANAUS;-3.037951400;-60.085759100;GPT;AMMNS-N07SP90;AMMNS-N07SP90-SS8;MNS_N07_1_GPON_VLAN_130_131_132-ALC;1/1/5/8
EQP0000000029474893;I15G0526;CTO - OPTAP-B-90/10;AMMNS_G1I15;AVENIDA MANAUS DOIS MIL MANAUS JAPIIM 69076448 AM 2202;MANAUS;-3.119411900;-59.977317200;G0;AMMNS-I15SP66;AMMNS-I15SP66-SS6;MNS_I15_1_GPON_VLAN_173_174_175-ALC;1/1/3/7
EQP0000000029462558;I01G02187;CTO - PAD TELEFONICA;AMMNS_G1I01;RUA FORTALEZA MANAUS ADRIANOPOLIS 69057080 AM 447;MANAUS;-3.110775900;-60.011811500;G0;AMMNS-I01SP274;AMMNS-I01SP274-SS3;MNS_I01_2_GPON_VLAN_103_104_105-ALC;1/1/6/1
EQP0000000029453691;I14G0608;CTO - OPTAP-B-90/10;AMMNS_G1I14;AVENIDA BRASIL MANAUS SAO JORGE 69033615 AM 2023;MANAUS;-3.106849900;-60.054183500;G0;AMMNS-I14SP76;AMMNS-I14SP76-SS8;MNS_I14_1_GPON_VLAN_185_186_187-ALC;1/1/4/11
EQP0000000045571637;I16G01298;CTO SPLITTER 1 8;AMMNS_G1I16;RUA COLUMINEA MANAUS REDENCAO 69047503 AM 1612;MANAUS;-3.055853900;-60.045117500;G0;AMMNS-I16SP163;AMMNS-I16SP163-SS2;MNS_I16_1_GPON_VLAN_170_171_172-ALC;1/1/5/3
EQP0000000029435144;I14G0337;CTO - OPTAP - B;AMMNS_G1I14;RUA CURUANA MANAUS COMPENSA 69035341 AM 970;MANAUS;-3.111077400;-60.064548100;G0;AMMNS-I14SP43;AMMNS-I14SP43-SS1;MNS_I14_1_GPON_VLAN_185_186_187-ALC;1/1/2/16
EQP0000000040953633;I15G01895;CTO SPLITTER 1 8;AMMNS_G1I15;RUA FELICIDADE MANAUS CIDADE NOVA 69097192 AM 40;MANAUS;-3.124085700;-59.990469200;G0;AMMNS-I15SP237;AMMNS-I15SP237-SS7;MNS_I15_2_GPON_VLAN_176_177_178-ALC;1/1/3/5
EQP0000000029439858;M04G01528;CTO - PAD TELEFONICA;AMMNS_G1M04;RUA CAMILA MONTEIRO MANAUS PARQUE 10 DE NOVEMBRO 69055403 AM 795;MANAUS;-3.081972800;-60.006974800;G0;AMMNS-M04SP191;AMMNS-M04SP191-SS8;MNS_M04_1_GPON_VLAN_106_107_108-ALC;1/1/7/3
EQP0000000029467066;I16G0374;CTO - OPTAP-B-90/10;AMMNS_G1I16;RUA WAGNER MANAUS DA PAZ 69048000 AM 142;MANAUS;-3.062627900;-60.035930500;G0;AMMNS-I16SP47;AMMNS-I16SP47-SS6;MNS_I16_1_GPON_VLAN_170_171_172-ALC;1/1/2/15
EQP0000000029440159;M04G0908;CTO - PAD TELEFONICA;AMMNS_G1M04;RUA VEREADOR MANOEL MARCAL MANAUS PARQUE 10 DE NOVEMBRO 69055380 AM 4620;MANAUS;-3.079143700;-60.024910000;G0;AMMNS-M04SP114;AMMNS-M04SP114-SS4;MNS_M04_1_GPON_VLAN_106_107_108-ALC;1/1/4/10
EQP0000000029474675;I14G01392;CTO - OPTAP-B-90/10;AMMNS_G1I14;RUA MENANDRO MANAUS SANTO ANTONIO 69029300 AM 201;MANAUS;-3.116926700;-60.045582300;G0;AMMNS-I14SP174;AMMNS-I14SP174-SS8;MNS_I14_1_GPON_VLAN_185_186_187-ALC;1/1/8/8
EQP0000000029436889;I01G01069;CTO - PAD TELEFONICA;AMMNS_G1I01;AVENIDA JOAO VALERIO MANAUS NOSSA SENHORA DAS GRACAS 69053140 AM 587;MANAUS;-3.107715200;-60.016744000;G0;AMMNS-I01SP134;AMMNS-I01SP134-SS5;MNS_I01_1_GPON_VLAN_100_101_102-ALC;1/1/7/4
EQP0000000029462427;N02G0308;CTO - PAD TELEFONICA;AMMNS_G1N02;AVENIDA BARCELOS MANAUS PRACA 14 DE JANEIRO 69020200 AM 1646;MANAUS;-3.118894300;-60.015515500;G0;AMMNS-N02SP39;AMMNS-N02SP39-SS4;MNS_N02_1_GPON_VLAN_118_119_120-ALC;1/1/3/2
EQP0000000029462705;N07GPT520;CTO - PAD TELEFONICA;AMMNS_G1N07;AVENIDA JOSE AUGUSTO LOUREIRO MANAUS PONTA NEGRA 69037225 AM SN;MANAUS;-3.050073100;-60.097276600;GPT;AMMNS-N07SP65;AMMNS-N07SP65-SS8;MNS_N07_1_GPON_VLAN_130_131_132-ALC;1/1/4/2
EQP0000000029437362;I01G01968;CTO - PAD TELEFONICA;AMMNS_G1I01;RUA PLANETA JUPITER MANAUS ALEIXO 69060089 AM 10;MANAUS;-3.094719200;-59.996162400;G0;AMMNS-I01SP246;AMMNS-I01SP246-SS8;MNS_I01_2_GPON_VLAN_103_104_105-ALC;1/1/4/16
EQP0000000029467893;I14G02309;CTO - OPTAP-B-85/15;AMMNS_G1I14;AVENIDA SAO JORGE MANAUS COMPENSA 69030455 AM 2880;MANAUS;-3.106054800;-60.042701600;G0;AMMNS-I14SP289;AMMNS-I14SP289-SS5;MNS_I14_2_GPON_VLAN_188_189_190-ALC;1/1/4/15
EQP0000000029440195;M04G01766;CTO - PAD TELEFONICA;AMMNS_G1M04;RUA TOCANTINS MANAUS FLORES 69028052 AM SN;MANAUS;-3.055392200;-60.009884300;G0;AMMNS-M04SP221;AMMNS-M04SP221-SS6;MNS_M04_2_GPON_VLAN_109_110_111-ALC;1/1/1/1
EQP0000000029451547;I06G0270;CTO - PAD TELEFONICA;AMMNS_G1I06;RUA DEPUTADO JOAO RODRIGUES DO CARMO MANAUS SANTO AGOSTINHO 69036660 AM 19;MANAUS;-3.089738800;-60.065315800;G0;AMMNS-I06SP34;AMMNS-I06SP34-SS6;MNS_I06_1_GPON_VLAN_136_137_138-ALC;1/1/2/12
EQP0000000029455585;I13G03133;CTO - OPTAP-B-85/15;AMMNS_G1I13;RUA VISCONDE DE SANTA CRUZ MANAUS FLORES 69058780 AM 839;MANAUS;-3.037208300;-59.992260800;G0;AMMNS-I13SP392;AMMNS-I13SP392-SS5;MNS_I13_2_GPON_VLAN_182_183_184-ALC;1/1/6/14
EQP0000000029450819;I05G0972;CTO - PAD TELEFONICA;AMMNS_G1I05;RUA CAIO LASMAR MANAUS SAO JORGE 69030135 AM 8;MANAUS;-3.094964100;-60.049730200;G0;AMMNS-I05SP122;AMMNS-I05SP122-SS4;MNS_I05_1_GPON_VLAN_124_125_126-ALC;1/1/6/3
EQP0000000029440143;M04G01107;CTO - PAD TELEFONICA;AMMNS_G1M04;AVENIDA TORQUATO TAPAJOS MANAUS TARUMA ACU 69023003 AM 5231;MANAUS;-3.062524000;-60.025285000;G0;AMMNS-M04SP139;AMMNS-M04SP139-SS3;MNS_M04_1_GPON_VLAN_106_107_108-ALC;1/1/4/13
EQP0000000029458506;I15GP327;TO;AMMNS_G1I15;RUA PROFESSOR LAZARO GONCALVES MANAUS JAPIIM 69077747 AM SN;MANAUS;-3.106677800;-59.967145600;GP;AMMNS-I15SP41;AMMNS-I15SP41-SS7;MNS_I15_1_GPON_VLAN_173_174_175-ALC;1/1/1/15
EQP0000000029461713;N07GPT271;CTO - PAD TELEFONICA;AMMNS_G1N07;AVENIDA CECILIA MEIRELES MANAUS PONTA NEGRA 69037071 AM 1123;MANAUS;-3.069213800;-60.080136600;GPT;AMMNS-N07SP34;AMMNS-N07SP34-SS7;MNS_N07_1_GPON_VLAN_130_131_132-ALC;1/1/2/9
EQP0000000029437313;I01G01124;CTO - PAD TELEFONICA;AMMNS_G1I01;RUA LIBERTADOR MANAUS NOSSA SENHORA DAS GRACAS 69053090 AM 219;MANAUS;-3.109894100;-60.018389400;G0;AMMNS-I01SP141;AMMNS-I01SP141-SS4;MNS_I01_1_GPON_VLAN_100_101_102-ALC;1/1/7/11
EQP0000000029454700;I14G0919;CTO - OPTAP-B-90/10;AMMNS_G1I14;RUA LASAR SEGALL MANAUS COMPENSA 69030481 AM 57;MANAUS;-3.104644000;-60.052628000;G0;AMMNS-I14SP115;AMMNS-I14SP115-SS7;MNS_I14_1_GPON_VLAN_185_186_187-ALC;1/1/6/7
EQP0000000062652089;I15G02236;CTO SPLITTER 1 8;AMMNS_G1I15;RUA LEOPOLDO CARPINTEIRO PERES MANAUS PETROPOLIS 69063510 AM 436;MANAUS;-3.119048500;-59.992164500;G0;AMMNS-I15SP280;AMMNS-I15SP280-SS4;MNS_I15_2_GPON_VLAN_176_177_178-ALC;1/1/5/16
EQP0000000029439848;M04G01540;CTO - PAD TELEFONICA;AMMNS_G1M04;RUA CARLOS LECOR MANAUS PARQUE 10 DE NOVEMBRO 69055430 AM 978;MANAUS;-3.081067600;-60.012918400;G0;AMMNS-M04SP193;AMMNS-M04SP193-SS4;MNS_M04_1_GPON_VLAN_106_107_108-ALC;1/1/7/5
EQP0000000029436800;I01G01712;CTO - PAD TELEFONICA;AMMNS_G1I01;AVENIDA ANDRE ARAUJO MANAUS ALEIXO 69060000 AM 73;MANAUS;-3.105983600;-60.007127100;G0;AMMNS-I01SP214;AMMNS-I01SP214-SS8;MNS_I01_2_GPON_VLAN_103_104_105-ALC;1/1/3/4
EQP0000000029456884;I05G01830;CTO - OPTAP-B-90/10;AMMNS_G1I05;RUA DOUTOR GENTIL BITTENCOURT MANAUS ALVORADA 69042120 AM 324;MANAUS;-3.074686400;-60.050880400;G0;AMMNS-I05SP229;AMMNS-I05SP229-SS6;MNS_I05_2_GPON_VLAN_127_128_129-ALC;1/1/2/3
EQP0000000029451161;I05G0902;CTO - PAD TELEFONICA;AMMNS_G1I05;RUA PEDRO NAVA MANAUS COMPENSA 69036430 AM SN;MANAUS;-3.098573100;-60.052617600;G0;AMMNS-I05SP113;AMMNS-I05SP113-SS6;MNS_I05_1_GPON_VLAN_124_125_126-ALC;1/1/5/14
EQP0000000029452300;N02G02301;CTO - PAD TELEFONICA;AMMNS_G1N02;AVENIDA BORBA MANAUS CACHOEIRINHA 69065030 AM 954;MANAUS;-3.126426000;-60.004698600;G0;AMMNS-N02SP288;AMMNS-N02SP288-SS5;MNS_N02_2_GPON_VLAN_121_122_123-ALC;1/1/2/10
EQP0000000029463167;N02G0915;CTO - PAD TELEFONICA;AMMNS_G1N02;RUA MIRANDA LEAO MANAUS CENTRO 69005040 AM 415;MANAUS;-3.139625300;-60.020942600;G0;AMMNS-N02SP115;AMMNS-N02SP115-SS3;MNS_N02_1_GPON_VLAN_118_119_120-ALC;1/1/5/8
EQP0000000029451703;I05G0545;CTO - PAD TELEFONICA;AMMNS_G1I05;AVENIDA DOM PEDRO I MANAUS DOM PEDRO I 69040040 AM 327;MANAUS;-3.086087900;-60.040752000;G0;AMMNS-I05SP69;AMMNS-I05SP69-SS1;MNS_I05_1_GPON_VLAN_124_125_126-ALC;1/1/3/7
EQP0000000106621483;N07GPC329;MINI CDOE 1:2 + 1:8 PRECON SELADA 60/40;AMMNS_G1N07;ALAMEDA ALBANIA MANAUS PONTA NEGRA 69037063 AM 50;MANAUS;-3.060008300;-60.100783000;GP;AMMNS-N07SP42;AMMNS-N07SP42-SS1;MNS_N07_1_GPON_VLAN_130_131_132-ALC;1/1/3/1
EQP0000000029468643;I05G01613;CTO - PAD TELEFONICA;AMMNS_G1I05;RUA DOUTOR HERMENEGILDO CAMPOS MANAUS ALVORADA 69042420 AM 365;MANAUS;-3.082047600;-60.052372800;G0;AMMNS-I05SP202;AMMNS-I05SP202-SS5;MNS_I05_1_GPON_VLAN_124_125_126-ALC;1/1/8/11
EQP0000000041281143;I01G02682;CTO SPLITTER 1 8;AMMNS_G1I01;RUA BENJAMIN CONSTANT MANAUS PETROPOLIS 69063010 AM SN;MANAUS;-3.108130800;-59.992682000;G0;AMMNS-I01SP336;AMMNS-I01SP336-SS2;BR-AMMNS01-OLT03-NK;1/1/1/16
EQP0000000029462859;N07GPT526;CTO - PAD TELEFONICA;AMMNS_G1N07;AVENIDA JOSE AUGUSTO LOUREIRO MANAUS PONTA NEGRA 69037225 AM SN;MANAUS;-3.051177400;-60.095157000;GPT;AMMNS-N07SP66;AMMNS-N07SP66-SS6;MNS_N07_1_GPON_VLAN_130_131_132-ALC;1/1/4/3
EQP0000000029462836;N02G0265;CTO - PAD TELEFONICA;AMMNS_G1N02;AVENIDA TARUMA MANAUS CENTRO 69025040 AM 564;MANAUS;-3.123306600;-60.021458700;G0;AMMNS-N02SP34;AMMNS-N02SP34-SS1;MNS_N02_1_GPON_VLAN_118_119_120-ALC;1/1/2/13
EQP0000000029456630;I06G01471;CTO - OPTAP-B-90/10;AMMNS_G1I06;RUA ELIAS GUEDES DA SILVA MANAUS PLANALTO 69044650 AM SN;MANAUS;-3.057032800;-60.055113200;G0;AMMNS-I06SP184;AMMNS-I06SP184-SS7;MNS_I06_2_GPON_VLAN_139_140_141-ALC;1/1/3/12
EQP0000000029457965;I05G02455;CTO - OPTAP-B-90/10;AMMNS_G1I05;RUA LORIS CORDOVIL MANAUS ALVORADA 69043010 AM 84;MANAUS;-3.080367000;-60.040392300;G0;AMMNS-I05SP307;AMMNS-I05SP307-SS7;MNS_I05_2_GPON_VLAN_127_128_129-ALC;1/1/4/14
EQP0000000029451628;I06G01709;CTO - PAD TELEFONICA;AMMNS_G1I06;AVENIDA LAGUNA MANAUS PLANALTO 69044800 AM SN;MANAUS;-3.072940600;-60.062236500;G0;AMMNS-I06SP214;AMMNS-I06SP214-SS5;MNS_I06_2_GPON_VLAN_139_140_141-ALC;1/1/2/5
EQP0000000029440096;N03G01502;CTO - OPTAP;AMMNS_G1N03;RUA SAGA MANAUS PARQUE 10 DE NOVEMBRO 69054234 AM SN;MANAUS;-3.072957600;-59.988544300;G0;AMMNS-N03SP188;AMMNS-N03SP188-SS6;MNS_N03_1_GPON_VLAN_112_113_114_ALC;1/1/8/8
EQP0000000029438018;I14G02421;CTO - OPTAP-B-85/15;AMMNS_G1I14;BECO FERMIO MANAUS VILA DA PRATA 69030689 AM 12;MANAUS;-3.110506600;-60.047914100;G0;AMMNS-I14SP303;AMMNS-I14SP303-SS5;MNS_I14_2_GPON_VLAN_188_189_190-ALC;1/1/5/13
EQP0000000029434827;I14G0194;CTO - OPTAP-B-60/40;AMMNS_G1I14;RUA NESTOR VITOR MANAUS COMPENSA 69035364 AM 50;MANAUS;-3.104213400;-60.066459200;G0;AMMNS-I14SP25;AMMNS-I14SP25-SS2;MNS_I14_1_GPON_VLAN_185_186_187-ALC;1/1/2/3
EQP0000000029441557;N03G0411;CTO - OPTAP;AMMNS_G1N03;RUA AMAZONAS CAVALCANTE MANAUS PARQUE 10 DE NOVEMBRO 69054738 AM SN;MANAUS;-3.069808500;-59.999580600;G0;AMMNS-N03SP52;AMMNS-N03SP52-SS3;MNS_N03_1_GPON_VLAN_112_113_114_ALC;1/1/3/8
EQP0000000029456915;I05G01768;CTO - OPTAP-B-90/10;AMMNS_G1I05;RUA JOAO PAULO I MANAUS ALVORADA 69042210 AM 331;MANAUS;-3.074328500;-60.049373800;G0;AMMNS-I05SP221;AMMNS-I05SP221-SS8;MNS_I05_2_GPON_VLAN_127_128_129-ALC;1/1/2/2
EQP0000000029462307;N07GPT1110;CTO - PAD TELEFONICA;AMMNS_G1N07;ALAMEDA CARLOTA BONFIM MANAUS PONTA NEGRA 69037145 AM 3269;MANAUS;-3.045383100;-60.090978700;GPT;AMMNS-N07SP139;AMMNS-N07SP139-SS6;MNS_N07_1_GPON_VLAN_130_131_132-ALC;1/1/6/15
EQP0000000029454546;I14G0945;CTO - OPTAP - B;AMMNS_G1I14;RUA ARMANDO FONTES MANAUS COMPENSA 69030050 AM 598;MANAUS;-3.100740600;-60.050202800;G0;AMMNS-I14SP119;AMMNS-I14SP119-SS1;MNS_I14_1_GPON_VLAN_185_186_187-ALC;1/1/6/9
EQP0000000029476150;I06G02034;CTO - OPTAP-B-60/40;AMMNS_G1I06;RUA WALDEMIR CORDEIRO MANAUS ALVORADA 69042160 AM 403;MANAUS;-3.073352900;-60.053495400;G0;AMMNS-I06SP255;AMMNS-I06SP255-SS2;MNS_I06_2_GPON_VLAN_139_140_141-ALC;1/1/5/8
EQP0000000029435996;I14G03210;CTO - OPTAP-B-60/40;AMMNS_G1I14;BECO MENA FELIX MANAUS SAO JORGE 69033271 AM 36;MANAUS;-3.106128800;-60.030234900;G0;AMMNS-I14SP402;AMMNS-I14SP402-SS2;MNS_I14_2_GPON_VLAN_188_189_190-ALC;1/1/7/14
EQP0000000029475237;M10G079;CTO - OPTAP-B-90/10;AMMNS_G1M10;AVENIDA AUTAZ MIRIM MANAUS DISTRITO INDUSTRIAL I 69075155 AM 1289;MANAUS;-3.065078500;-59.951768600;G0;AMMNS-M10SP10;AMMNS-M10SP10-SS7;MNS_M10_1_GPON_VLAN_161_162_163-SJS;1/1/1/4
EQP0000000029452080;N02G0948;CTO - PAD TELEFONICA;AMMNS_G1N02;AVENIDA FLORIANO PEIXOTO MANAUS CENTRO 69005070 AM 199;MANAUS;-3.137135900;-60.021905100;G0;AMMNS-N02SP119;AMMNS-N02SP119-SS4;MNS_N02_1_GPON_VLAN_118_119_120-ALC;1/1/5/11
EQP0000000029452899;N02G01990;CTO - PAD TELEFONICA;AMMNS_G1N02;AVENIDA AJURICABA MANAUS CACHOEIRINHA 69065110 AM 1128;MANAUS;-3.133185000;-60.004361700;G0;AMMNS-N02SP249;AMMNS-N02SP249-SS6;MNS_N02_2_GPON_VLAN_121_122_123-ALC;1/1/2/2
EQP0000000029436801;I01G01713;CTO - PAD TELEFONICA;AMMNS_G1I01;AVENIDA ANDRE ARAUJO MANAUS ALEIXO 69060000 AM 43;MANAUS;-3.106347100;-60.007568200;G0;AMMNS-I01SP215;AMMNS-I01SP215-SS1;MNS_I01_2_GPON_VLAN_103_104_105-ALC;1/1/3/5
EQP0000000029453902;I14G01208;CTO - OPTAP-B-90/10;AMMNS_G1I14;RUA SAO MIGUEL MANAUS SANTO ANTONIO 69029550 AM 32;MANAUS;-3.112776700;-60.051320400;G0;AMMNS-I14SP151;AMMNS-I14SP151-SS8;MNS_I14_1_GPON_VLAN_185_186_187-ALC;1/1/7/7
EQP0000000029456648;I05G02690;CTO - OPTAP-B-60/40;AMMNS_G1I05;RUA UPANEMA MANAUS ALVORADA 69042090 AM 380;MANAUS;-3.076058800;-60.051367800;G0;AMMNS-I05SP337;AMMNS-I05SP337-SS2;MNS_I05_2_GPON_VLAN_127_128_129-ALC;1/1/6/4
EQP0000000029463482;I06GP456;TO;AMMNS_G1I06;AVENIDA CORONEL TEIXEIRA MANAUS PONTA NEGRA 69037000 AM 6225;MANAUS;-3.082131200;-60.068307300;GP;AMMNS-I06SP57;AMMNS-I06SP57-SS8;MNS_I06_1_GPON_VLAN_136_137_138-ALC;1/1/3/11
EQP0000000071635704;M10GP92;MINI CDOE 1:2 + 1:8 PRECON SELADA 60/40;AMMNS_G1M10;AVENIDA AUTAZ MIRIM MANAUS DISTRITO INDUSTRIAL I 69075155 AM 6100;MANAUS;-3.062930900;-59.950424900;GP;AMMNS-M10SP12;AMMNS-M10SP12-SS4;MNS_M10_1_GPON_VLAN_161_162_163-SJS;1/1/1/6
EQP0000000029463915;N02G01139;CTO - PAD TELEFONICA;AMMNS_G1N02;AVENIDA VISCONDE DE PORTO ALEGRE MANAUS CENTRO 69010125 AM 527;MANAUS;-3.131571300;-60.013623000;G0;AMMNS-N02SP143;AMMNS-N02SP143-SS3;MNS_N02_1_GPON_VLAN_118_119_120-ALC;1/1/6/16
EQP0000000029453360;I13G01368;CTO - OPTAP-B-90/10;AMMNS_G1I13;RUA FRANZ SCHUBERT MANAUS FLORES 69028331 AM 139;MANAUS;-3.048332400;-60.008331500;G0;AMMNS-I13SP171;AMMNS-I13SP171-SS8;MNS_I13_1_GPON_VLAN_179_180_181-ALC;1/1/7/5
EQP0000000029451616;I01GP1726;TO;AMMNS_G1I01;RUA BELO HORIZONTE MANAUS ADRIANOPOLIS 69057060 AM 397;MANAUS;-3.106421200;-60.009986900;GP;AMMNS-I01SP216;AMMNS-I01SP216-SS6;MNS_I01_2_GPON_VLAN_103_104_105-ALC;1/1/3/6
EQP0000000188932660;N02G01496;CTO SPLITTER 1 8;AMMNS_G1N02;AVENIDA TARUMA MANAUS CACHOEIRINHA 69065055 AM 1837;MANAUS;-3.123013900;-60.010300700;G0;AMMNS-N02SP187;AMMNS-N02SP187-SS8;MNS_N02_2_GPON_VLAN_121_122_123-ALC;1/1/3/6
EQP0000000029456696;I05G01871;CTO - OPTAP-B-90/10;AMMNS_G1I05;RUA VALENCA MANAUS ALVORADA 69043760 AM 18;MANAUS;-3.074748400;-60.045176700;G0;AMMNS-I05SP234;AMMNS-I05SP234-SS7;MNS_I05_2_GPON_VLAN_127_128_129-ALC;1/1/2/8
EQP0000000029434813;I14G0180;CTO - OPTAP-B-80/20;AMMNS_G1I14;RUA GREGORIO DE MATOS MANAUS COMPENSA 69035730 AM SN;MANAUS;-3.101845000;-60.067234500;G0;AMMNS-I14SP23;AMMNS-I14SP23-SS4;MNS_I14_1_GPON_VLAN_185_186_187-ALC;1/1/2/1
EQP0000000029435331;I14G0374;CTO - OPTAP-B-90/10;AMMNS_G1I14;RUA JOAQUIM SERRA MANAUS COMPENSA 69035290 AM 722;MANAUS;-3.107499800;-60.063942000;G0;AMMNS-I14SP47;AMMNS-I14SP47-SS6;MNS_I14_1_GPON_VLAN_185_186_187-ALC;1/1/3/4
EQP0000000029440860;M04G01320;CTO - PAD TELEFONICA;AMMNS_G1M04;RUA MANOEL MARQUES DE SOUZA MANAUS PARQUE 10 DE NOVEMBRO 69055240 AM 428;MANAUS;-3.086424200;-60.013700600;G0;AMMNS-M04SP165;AMMNS-M04SP165-SS8;MNS_M04_1_GPON_VLAN_106_107_108-ALC;1/1/5/16
EQP0000000029456348;I05G01894;CTO - OPTAP-B-90/10;AMMNS_G1I05;RUA UPANEMA MANAUS ALVORADA 69042090 AM 268;MANAUS;-3.076061800;-60.046474800;G0;AMMNS-I05SP237;AMMNS-I05SP237-SS6;MNS_I05_2_GPON_VLAN_127_128_129-ALC;1/1/2/11
EQP0000000101935200;I01GP1826;MINI CDOE 1:2 + 1:8 PRECON SELADA 60/40;AMMNS_G1I01;AVENIDA EPHIGENIO SALLES MANAUS ALEIXO 69060020 AM 2000;MANAUS;-3.089570100;-59.994864300;GP;AMMNS-I01SP229;AMMNS-I01SP229-SS2;MNS_I01_2_GPON_VLAN_103_104_105-ALC;1/1/3/15
EQP0000000029450791;N02G01747;CTO - PAD TELEFONICA;AMMNS_G1N02;RUA GENERAL GLICERIO MANAUS CACHOEIRINHA 69065140 AM 604;MANAUS;-3.130454700;-60.009190600;G0;AMMNS-N02SP219;AMMNS-N02SP219-SS3;MNS_N02_2_GPON_VLAN_121_122_123-ALC;1/1/1/16
EQP0000000040101980;I01G02311;CTO SPLITTER 1 8;AMMNS_G1I01;RUA RIO NITEROI MANAUS PETROPOLIS 69067540 AM 18;MANAUS;-3.108000400;-59.998095600;G0;AMMNS-I01SP289;AMMNS-I01SP289-SS7;MNS_I01_2_GPON_VLAN_103_104_105-ALC;1/1/7/1
EQP0000000029462537;I01G02289;CTO - PAD TELEFONICA;AMMNS_G1I01;RUA MAJOR GABRIEL MANAUS PRACA 14 DE JANEIRO 69020405 AM 1766;MANAUS;-3.119788000;-60.016713800;G0;AMMNS-I01SP287;AMMNS-I01SP287-SS1;MNS_I01_2_GPON_VLAN_103_104_105-ALC;1/1/6/14
EQP0000000029462315;N07GPT1120;CTO - PAD TELEFONICA;AMMNS_G1N07;ALAMEDA CARLOTA BONFIM MANAUS PONTA NEGRA 69037145 AM 3269;MANAUS;-3.046498000;-60.085531600;GPT;AMMNS-N07SP140;AMMNS-N07SP140-SS8;MNS_N07_1_GPON_VLAN_130_131_132-ALC;1/1/6/16
EQP0000000029453247;I06G01391;CTO - PAD TELEFONICA;AMMNS_G1I06;RUA SOUTO SOARES MANAUS LIRIO DO VALE 69038291 AM SN;MANAUS;-3.071569000;-60.068318700;G0;AMMNS-I06SP174;AMMNS-I06SP174-SS7;MNS_I06_1_GPON_VLAN_136_137_138-ALC;1/1/8/5
EQP0000000029451188;I05G0886;CTO - PAD TELEFONICA;AMMNS_G1I05;RUA HERMAN LIMA MANAUS COMPENSA 69036400 AM SN;MANAUS;-3.097659500;-60.055051200;G0;AMMNS-I05SP111;AMMNS-I05SP111-SS6;MNS_I05_1_GPON_VLAN_124_125_126-ALC;1/1/5/12
EQP0000000029451820;N02G01713;CTO - PAD TELEFONICA;AMMNS_G1N02;RUA GENERAL GLICERIO MANAUS CACHOEIRINHA 69065140 AM 1070;MANAUS;-3.126568900;-60.009025200;G0;AMMNS-N02SP215;AMMNS-N02SP215-SS1;MNS_N02_2_GPON_VLAN_121_122_123-ALC;1/1/1/12
EQP0000000029450714;N02G0813;CTO - PAD TELEFONICA;AMMNS_G1N02;AVENIDA GETULIO VARGAS MANAUS CENTRO 69020011 AM 281;MANAUS;-3.132696700;-60.020832600;G0;AMMNS-N02SP102;AMMNS-N02SP102-SS5;MNS_N02_1_GPON_VLAN_118_119_120-ALC;1/1/4/11
EQP0000000029456561;I13G0480;CTO - OPTAP-B-90/10;AMMNS_G1I13;RUA CAMUCE MANAUS CIDADE NOVA 69096171 AM 63;MANAUS;-3.035529500;-59.976214400;G0;AMMNS-I13SP60;AMMNS-I13SP60-SS8;MNS_I13_1_GPON_VLAN_179_180_181-ALC;1/1/3/11
EQP0000000029436966;I01G0970;CTO - PAD TELEFONICA;AMMNS_G1I01;RUA CURITIBA MANAUS NOSSA SENHORA DAS GRACAS 69053160 AM SN;MANAUS;-3.101827300;-60.017733300;G0;AMMNS-I01SP122;AMMNS-I01SP122-SS2;MNS_I01_1_GPON_VLAN_100_101_102-ALC;1/1/6/8
EQP0000000049031064;I15G02174;CTO SPLITTER 1 8;AMMNS_G1I15;AVENIDA CODAJAS MANAUS CACHOEIRINHA 69065130 AM 35;MANAUS;-3.119158900;-59.999941700;G0;AMMNS-I15SP272;AMMNS-I15SP272-SS6;MNS_I15_2_GPON_VLAN_176_177_178-ALC;1/1/5/8
EQP0000000029462292;N07GPT1091;CTO - PAD TELEFONICA;AMMNS_G1N07;ALAMEDA CARLOTA BONFIM MANAUS PONTA NEGRA 69037145 AM 3269;MANAUS;-3.045633600;-60.080817100;GPT;AMMNS-N07SP137;AMMNS-N07SP137-SS3;MNS_N07_1_GPON_VLAN_130_131_132-ALC;1/1/6/13
EQP0000000029464808;I06G01735;CTO - OPTAP-B-90/10;AMMNS_G1I06;RUA APOSTOLO JOAO MANAUS ALVORADA 69042290 AM 420;MANAUS;-3.081823500;-60.055390300;G0;AMMNS-I06SP217;AMMNS-I06SP217-SS7;MNS_I06_2_GPON_VLAN_139_140_141-ALC;1/1/3/13
EQP0000000029439641;I01GPT237;CTO - PAD TELEFONICA;AMMNS_G1I01;AVENIDA DJALMA BATISTA MANAUS CHAPADA 69050010 AM 1035;MANAUS;-3.095193400;-60.025765100;GPT;AMMNS-I01SP30;AMMNS-I01SP30-SS5;MNS_I01_1_GPON_VLAN_100_101_102-ALC;1/1/1/15
EQP0000000029462435;N02G0320;CTO - PAD TELEFONICA;AMMNS_G1N02;RUA MAJOR GABRIEL MANAUS ADRIANOPOLIS 69057038 AM 1014;MANAUS;-3.125789500;-60.016733400;G0;AMMNS-N02SP40;AMMNS-N02SP40-SS8;MNS_N02_1_GPON_VLAN_118_119_120-ALC;1/1/3/3
EQP0000000029434817;I14G0184;CTO - OPTAP-B-90/10;AMMNS_G1I14;RUA RICARDO CHAMMA MANAUS COMPENSA 69035736 AM 20;MANAUS;-3.102009800;-60.066663600;G0;AMMNS-I14SP23;AMMNS-I14SP23-SS8;MNS_I14_1_GPON_VLAN_185_186_187-ALC;1/1/2/1
EQP0000000029456065;I13G01431;CTO - OPTAP-B-90/10;AMMNS_G1I13;RUA CUBA MANAUS FLORES 69028260 AM 433;MANAUS;-3.050185200;-60.006864600;G0;AMMNS-I13SP179;AMMNS-I13SP179-SS7;MNS_I13_1_GPON_VLAN_179_180_181-ALC;1/1/7/13
EQP0000000029464692;I16G0387;CTO - OPTAP-B-70/30;AMMNS_G1I16;RUA WAGNER MANAUS ALVORADA 69048570 AM 61;MANAUS;-3.064346000;-60.026846600;G0;AMMNS-I16SP49;AMMNS-I16SP49-SS3;MNS_I16_1_GPON_VLAN_170_171_172-ALC;1/1/3/1
EQP0000000029440606;I05G01607;CTO - PAD TELEFONICA;AMMNS_G1I05;RUA TOMAS A. GONZAGA MANAUS ALVORADA 69042828 AM SN;MANAUS;-3.083309900;-60.052543500;G0;AMMNS-I05SP201;AMMNS-I05SP201-SS7;MNS_I05_1_GPON_VLAN_124_125_126-ALC;1/1/8/10
EQP0000000029441331;M04G02298;CTO - PAD TELEFONICA;AMMNS_G1M04;RUA PROFESSORA OLGA DE MELO MANAUS FLORES 69058335 AM 13;MANAUS;-3.062428300;-60.014164200;G0;AMMNS-M04SP288;AMMNS-M04SP288-SS2;MNS_M04_2_GPON_VLAN_109_110_111-ALC;1/1/2/11
EQP0000000029466437;I01G0903;CTO - PAD TELEFONICA;AMMNS_G1I01;RUA FELICIANA COSTA MANAUS NOSSA SENHORA DAS GRACAS 69057170 AM 40;MANAUS;-3.097025200;-60.015830700;G0;AMMNS-I01SP113;AMMNS-I01SP113-SS7;MNS_I01_1_GPON_VLAN_100_101_102-ALC;1/1/5/15
EQP0000000189414682;I14G0517;CTO SPLITTER 1 8;AMMNS_G1I14;RUA TEOFILO DIAS MANAUS COMPENSA 69036100 AM 72;MANAUS;-3.098790500;-60.060979200;G0;AMMNS-I14SP65;AMMNS-I14SP65-SS5;BR-AMMNS14-OLT03-NK;1/1/1/13
EQP0000000029462370;N03GPT32;CTO - OPTAP;AMMNS_G1N03;RUA VISCONDE DE SUASSUNA MANAUS FLORES 69058800 AM 46;MANAUS;-3.056609500;-59.993438600;GPT;AMMNS-N03SP4;AMMNS-N03SP4-SS8;MNS_N03_1_GPON_VLAN_112_113_114_ALC;1/1/1/4
EQP0000000029435197;I14G0248;CTO - OPTAP-B-90/10;AMMNS_G1I14;RUA XAVIER MARQUES MANAUS COMPENSA 69035280 AM 104;MANAUS;-3.108165800;-60.061684400;G0;AMMNS-I14SP31;AMMNS-I14SP31-SS8;MNS_I14_1_GPON_VLAN_185_186_187-ALC;1/1/2/9
EQP0000000029457619;I05G02465;CTO - OPTAP - B;AMMNS_G1I05;RUA MAYORUNA MANAUS ALVORADA 69043110 AM 2;MANAUS;-3.079681800;-60.035394600;G0;AMMNS-I05SP309;AMMNS-I05SP309-SS1;MNS_I05_2_GPON_VLAN_127_128_129-ALC;1/1/4/16
EQP0000000029451483;N02G01596;CTO - PAD TELEFONICA;AMMNS_G1N02;AVENIDA CASTELO BRANCO MANAUS CACHOEIRINHA 69065011 AM 1500;MANAUS;-3.122266200;-60.007410200;G0;AMMNS-N02SP200;AMMNS-N02SP200-SS4;MNS_N02_1_GPON_VLAN_118_119_120-ALC;1/1/8/13
EQP0000000029437218;N03GP1207;TO;AMMNS_G1N03;RUA JOSE ROMAO MANAUS SAO JOSE OPERARIO 69085288 AM 215;MANAUS;-3.071930500;-59.971567400;GP;AMMNS-N03SP151;AMMNS-N03SP151-SS7;MNS_N03_2_GPON_VLAN_115_116_117_ALC;1/1/1/16
EQP0000000029467819;I05G0975;CTO - PAD TELEFONICA;AMMNS_G1I05;RUA MANOEL NASCIMENTO MANAUS SAO JORGE 69033015 AM 74;MANAUS;-3.096159400;-60.049528300;G0;AMMNS-I05SP122;AMMNS-I05SP122-SS7;MNS_I05_1_GPON_VLAN_124_125_126-ALC;1/1/6/3
EQP0000000244238511;I15G02218;CTO SPLITTER 1 8;AMMNS_G1I15;RUA CORONEL JAIME MENDONCA MANAUS PETROPOLIS 69063500 AM 23;MANAUS;-3.121296200;-59.992393800;G0;AMMNS-I15SP278;S8_1;MNS_I15_2_GPON_VLAN_176_177_178-ALC;1/1/5/14
EQP0000000073306366;I15G02223;CTO SPLITTER 1 8;AMMNS_G1I15;RUA CORONEL JAIME MENDONCA MANAUS PETROPOLIS 69063500 AM 18;MANAUS;-3.121307900;-59.992765700;G0;AMMNS-I15SP278;AMMNS-I15SP278-SS7;MNS_I15_2_GPON_VLAN_176_177_178-ALC;1/1/5/14
EQP0000000029451707;I05G0541;CTO - PAD TELEFONICA;AMMNS_G1I05;RUA DUARTE DA COSTA MANAUS DOM PEDRO I 69040670 AM 554;MANAUS;-3.085403200;-60.041555300;G0;AMMNS-I05SP68;AMMNS-I05SP68-SS5;MNS_I05_1_GPON_VLAN_124_125_126-ALC;1/1/3/6
EQP0000000029454533;I13G01642;CTO - OPTAP-B-60/40;AMMNS_G1I13;RUA FLORENCA MANAUS FLORES 69028339 AM 211;MANAUS;-3.047153500;-60.007768900;G0;AMMNS-I13SP206;AMMNS-I13SP206-SS2;MNS_I13_1_GPON_VLAN_179_180_181-ALC;1/1/8/9
EQP0000000029463391;N02G0178;CTO - PAD TELEFONICA;AMMNS_G1N02;RUA FERREIRA PENA MANAUS CENTRO 69010140 AM 92;MANAUS;-3.128948400;-60.025412200;G0;AMMNS-N02SP23;AMMNS-N02SP23-SS2;MNS_N02_1_GPON_VLAN_118_119_120-ALC;1/1/2/2
EQP0000000040954193;I15G01892;CTO SPLITTER 1 8;AMMNS_G1I15;RUA FELICIDADE MANAUS CIDADE NOVA 69097192 AM 68;MANAUS;-3.122854300;-59.990487500;G0;AMMNS-I15SP237;AMMNS-I15SP237-SS4;MNS_I15_2_GPON_VLAN_176_177_178-ALC;1/1/3/5
EQP0000000029456238;I16G0093;CTO - OPTAP-B-85/15;AMMNS_G1I16;RUA COMANDANTE NORBERTO WON GAL MANAUS REDENCAO 69047095 AM 130;MANAUS;-3.055260800;-60.032809300;G0;AMMNS-I16SP12;AMMNS-I16SP12-SS5;MNS_I16_1_GPON_VLAN_170_171_172-ALC;1/1/1/8
EQP0000000029461735;N07G0218;CTO - PAD TELEFONICA;AMMNS_G1N07;AVENIDA CORONEL TEIXEIRA MANAUS NOVA ESPERANCA 69037473 AM 293;MANAUS;-3.080990400;-60.076088100;G0;AMMNS-N07SP28;AMMNS-N07SP28-SS2;MNS_N07_1_GPON_VLAN_130_131_132-ALC;1/1/2/3
EQP0000000029437948;I14G02860;CTO - OPTAP-B-80/20;AMMNS_G1I14;RUA OTAVIO GUIMARAES MANAUS SAO JORGE 69033460 AM 67;MANAUS;-3.112167800;-60.036247900;G0;AMMNS-I14SP358;AMMNS-I14SP358-SS4;MNS_I14_2_GPON_VLAN_188_189_190-ALC;1/1/7/6
EQP0000000029451053;N02G01091;CTO - PAD TELEFONICA;AMMNS_G1N02;RUA MAJOR MAJOR GABRIEL MANAUS CENTRO 69020060 AM 236;MANAUS;-3.132744900;-60.016860400;G0;AMMNS-N02SP137;AMMNS-N02SP137-SS3;MNS_N02_1_GPON_VLAN_118_119_120-ALC;1/1/6/10
EQP0000000041149280;I15G02051;CTO SPLITTER 1 8;AMMNS_G1I15;RUA CORONEL FERREIRA SOBRINHO MANAUS PETROPOLIS 69079300 AM 60;MANAUS;-3.116288800;-60.001280000;G0;AMMNS-I15SP257;AMMNS-I15SP257-SS3;MNS_I15_2_GPON_VLAN_176_177_178-ALC;1/1/4/9
EQP0000000029456694;I05G01868;CTO - OPTAP-B-80/20;AMMNS_G1I05;RUA ROSINA FERREIRA MANAUS ALVORADA 69043771 AM 76;MANAUS;-3.072914400;-60.045122800;G0;AMMNS-I05SP234;AMMNS-I05SP234-SS4;MNS_I05_2_GPON_VLAN_127_128_129-ALC;1/1/2/8
EQP0000000029440929;N03G01378;CTO - OPTAP;AMMNS_G1N03;RUA NOCA CABRAL DOS ANJOS MANAUS ALEIXO 69083011 AM 207;MANAUS;-3.078448600;-59.985955500;G0;AMMNS-N03SP173;AMMNS-N03SP173-SS2;MNS_N03_1_GPON_VLAN_112_113_114_ALC;1/1/7/9
EQP0000000029440777;I05G01163;CTO - PAD TELEFONICA;AMMNS_G1I05;RUA PRESIDENTE WENCESLAU BRAZ MANAUS FLORES 69058670 AM 267;MANAUS;-3.086245900;-60.037774400;G0;AMMNS-I05SP146;AMMNS-I05SP146-SS3;MNS_I05_1_GPON_VLAN_124_125_126-ALC;1/1/7/11
EQP0000000040876342;I16G01696;CTO SPLITTER 1 8;AMMNS_G1I16;RUA DOUTOR NILSON VASCONCELOS MANAUS REDENCAO 69049300 AM 388;MANAUS;-3.051853000;-60.036733100;G0;AMMNS-I16SP212;AMMNS-I16SP212-SS8;MNS_I16_1_GPON_VLAN_170_171_172-ALC;1/1/8/4
EQP0000000029468108;N02G0979;CTO - PAD TELEFONICA;AMMNS_G1N02;RUA LIMA BACURI MANAUS CENTRO 69005220 AM 247;MANAUS;-3.136162900;-60.018477800;G0;AMMNS-N02SP123;AMMNS-N02SP123-SS3;MNS_N02_1_GPON_VLAN_118_119_120-ALC;1/1/5/15
EQP0000000029463166;N02G0910;CTO - PAD TELEFONICA;AMMNS_G1N02;RUA MIRANDA LEAO MANAUS CENTRO 69005040 AM 457;MANAUS;-3.139769200;-60.020604700;G0;AMMNS-N02SP114;AMMNS-N02SP114-SS6;MNS_N02_1_GPON_VLAN_118_119_120-ALC;1/1/5/7
EQP0000000029451946;N02G01220;CTO - PAD TELEFONICA;AMMNS_G1N02;RUA SATIRO DIAS MANAUS SAO FRANCISCO 69079060 AM 286;MANAUS;-3.111480000;-60.005039300;G0;AMMNS-N02SP153;AMMNS-N02SP153-SS4;MNS_N02_1_GPON_VLAN_118_119_120-ALC;1/1/7/10
EQP0000000029463178;N07GPT738;CTO - PAD TELEFONICA;AMMNS_G1N07;AVENIDA FREDERICO BAIRD MANAUS PONTA NEGRA 69037144 AM 2881;MANAUS;-3.038165200;-60.077636800;GPT;AMMNS-N07SP93;AMMNS-N07SP93-SS2;MNS_N07_1_GPON_VLAN_130_131_132-ALC;1/1/5/11
EQP0000000029466734;I15G01118;CTO - OPTAP-B-90/10;AMMNS_G1I15;RUA JACKSON SOUZA LIMA MANAUS JAPIIM 69078440 AM 18;MANAUS;-3.121935100;-59.987525400;G0;AMMNS-I15SP140;AMMNS-I15SP140-SS6;MNS_I15_1_GPON_VLAN_173_174_175-ALC;1/1/5/15
EQP0000000029452900;N02G01991;CTO - PAD TELEFONICA;AMMNS_G1N02;AVENIDA AJURICABA MANAUS CACHOEIRINHA 69065110 AM 1149;MANAUS;-3.133085000;-60.004491400;G0;AMMNS-N02SP249;AMMNS-N02SP249-SS7;MNS_N02_2_GPON_VLAN_121_122_123-ALC;1/1/2/2
EQP0000000029464391;N07GPT881;CTO - PAD TELEFONICA;AMMNS_G1N07;ALAMEDA CARLOTA BONFIM MANAUS PONTA NEGRA 69037145 AM SN;MANAUS;-3.041603600;-60.103763200;GPT;AMMNS-N07SP111;AMMNS-N07SP111-SS1;MNS_N07_1_GPON_VLAN_130_131_132-ALC;1/1/6/10
EQP0000000029462277;N02G0299;CTO - PAD TELEFONICA;AMMNS_G1N02;RUA APURINA MANAUS CENTRO 69020170 AM 174;MANAUS;-3.121748600;-60.019268500;G0;AMMNS-N02SP38;AMMNS-N02SP38-SS3;MNS_N02_1_GPON_VLAN_118_119_120-ALC;1/1/3/1
EQP0000000029464778;I06G02024;CTO - OPTAP-B-90/10;AMMNS_G1I06;RUA ITATUBA MANAUS ALVORADA 69042150 AM 391;MANAUS;-3.073857500;-60.053832600;G0;AMMNS-I06SP253;AMMNS-I06SP253-SS8;MNS_I06_2_GPON_VLAN_139_140_141-ALC;1/1/5/6
EQP0000000029463520;I01G02257;CTO - PAD TELEFONICA;AMMNS_G1I01;RUA SILVA RAMOS MANAUS CENTRO 69025030 AM SN;MANAUS;-3.118805100;-60.021816800;G0;AMMNS-I01SP283;AMMNS-I01SP283-SS1;MNS_I01_2_GPON_VLAN_103_104_105-ALC;1/1/6/10
EQP0000000101900084;I01GP1514;MINI CDOE 1:2 + 1:8 PRECON SELADA 60/40;AMMNS_G1I01;RUA BELO HORIZONTE MANAUS ADRIANOPOLIS 69057060 AM 1830;MANAUS;-3.096155800;-60.009034900;GP;AMMNS-I01SP190;AMMNS-I01SP190-SS2;MNS_I01_2_GPON_VLAN_103_104_105-ALC;1/1/1/12
EQP0000000029457755;I15GP180;TO;AMMNS_G1I15;RUA ALBERTO CARREIRA MANAUS JAPIIM 69077783 AM 132;MANAUS;-3.106021700;-59.963598900;GP;AMMNS-I15SP23;AMMNS-I15SP23-SS4;MNS_I15_1_GPON_VLAN_173_174_175-ALC;1/1/1/11
EQP0000000029474965;N03G01526;CTO - OPTAP;AMMNS_G1N03;RUA MISUSHIRO MANAUS PARQUE 10 DE NOVEMBRO 69054672 AM SN;MANAUS;-3.070123300;-59.993506400;G0;AMMNS-N03SP191;AMMNS-N03SP191-SS6;MNS_N03_1_GPON_VLAN_112_113_114_ALC;1/1/8/11
EQP0000000029476125;I06G02458;CTO - OPTAP-B-60/40;AMMNS_G1I06;AVENIDA DESEMBARGADOR JOAO MACHADO MANAUS ALVORADA 69043000 AM 359;MANAUS;-3.071897800;-60.053083400;G0;AMMNS-I06SP308;AMMNS-I06SP308-SS2;MNS_I06_2_GPON_VLAN_139_140_141-ALC;1/1/7/12
EQP0000000029457527;I13G0437;CTO - OPTAP-B-85/15;AMMNS_G1I13;RUA SAO FRANCISCANO MANAUS CIDADE NOVA 69096185 AM 39;MANAUS;-3.032808100;-59.972273600;G0;AMMNS-I13SP55;AMMNS-I13SP55-SS5;MNS_I13_1_GPON_VLAN_179_180_181-ALC;1/1/3/6
EQP0000000029451193;I05GPT881;CTO - PAD TELEFONICA;AMMNS_G1I05;RUA LEONCIO CORREA MANAUS COMPENSA 69036380 AM SN;MANAUS;-3.096121300;-60.054954100;GPT;AMMNS-I05SP111;AMMNS-I05SP111-SS1;MNS_I05_1_GPON_VLAN_124_125_126-ALC;1/1/5/12
EQP0000000029440325;M04G0584;CTO - PAD TELEFONICA;AMMNS_G1M04;RUA CELSO MACHADO MANAUS FLORES 69028326 AM 60;MANAUS;-3.057866800;-60.019676700;G0;AMMNS-M04SP73;AMMNS-M04SP73-SS8;MNS_M04_1_GPON_VLAN_106_107_108-ALC;1/1/3/5
EQP0000000029458950;I05G01969;CTO - OPTAP - B;AMMNS_G1I05;RUA RAIMUNDO QUEIROZ MANAUS ALVORADA 69043800 AM 4;MANAUS;-3.074589200;-60.041413800;G0;AMMNS-I05SP247;AMMNS-I05SP247-SS1;MNS_I05_2_GPON_VLAN_127_128_129-ALC;1/1/3/4
EQP0000000045423602;I16G01289;CTO SPLITTER 1 8;AMMNS_G1I16;RUA BAGE MANAUS REDENCAO 69047390 AM 446;MANAUS;-3.054770900;-60.049983300;G0;AMMNS-I16SP162;AMMNS-I16SP162-SS1;MNS_I16_1_GPON_VLAN_170_171_172-ALC;1/1/5/2
EQP0000000038274715;I01GP2173;MINI CDOE 1:2 + 1:8 PRECON SELADA 60/40;AMMNS_G1I01;RUA BELO HORIZONTE MANAUS ADRIANOPOLIS 69057060 AM 9;MANAUS;-3.106206800;-60.012715700;GP;AMMNS-I01SP272;AMMNS-I01SP272-SS5;MNS_I01_2_GPON_VLAN_103_104_105-ALC;1/1/5/15
EQP0000000029468914;I13G02892;CTO - OPTAP-B-80/20;AMMNS_G1I13;RUA GUAPIMIRIM MANAUS CIDADE NOVA 69090060 AM 35;MANAUS;-3.033551000;-59.989576000;G0;AMMNS-I13SP362;AMMNS-I13SP362-SS4;MNS_I13_2_GPON_VLAN_182_183_184-ALC;1/1/5/12
EQP0000000029464431;I01GP1738;TO;AMMNS_G1I01;AVENIDA VIA LACTEA MANAUS ALEIXO 69060085 AM 607;MANAUS;-3.090310700;-60.000238400;GP;AMMNS-I01SP218;AMMNS-I01SP218-SS2;MNS_I01_2_GPON_VLAN_103_104_105-ALC;1/1/3/8
EQP0000000029463721;N02G01128;CTO - PAD TELEFONICA;AMMNS_G1N02;AVENIDA VISCONDE DE PORTO ALEGRE MANAUS CENTRO 69010125 AM 61;MANAUS;-3.135906700;-60.013569400;G0;AMMNS-N02SP141;AMMNS-N02SP141-SS8;MNS_N02_1_GPON_VLAN_118_119_120-ALC;1/1/6/14
EQP0000000124612054;I06GP116;MINI CDOE 1:2 + 1:8 PRECON SELADA 60/40;AMMNS_G1I06;RUA ILHA OREGON MANAUS LIRIO DO VALE 69038561 AM 131;MANAUS;-3.072014600;-60.072735100;GP;AMMNS-I06SP15;AMMNS-I06SP15-SS4;MNS_I06_2_GPON_VLAN_139_140_141-ALC;1/1/8/13
EQP0000000029464921;I01G0533;CTO - PAD TELEFONICA;AMMNS_G1I01;RUA RIO ICA MANAUS NOSSA SENHORA DAS GRACAS 69053100 AM 192;MANAUS;-3.109300700;-60.022594500;G0;AMMNS-I01SP67;AMMNS-I01SP67-SS5;MNS_I01_1_GPON_VLAN_100_101_102-ALC;1/1/4/1
EQP0000000029437073;I01G01452;CTO - PAD TELEFONICA;AMMNS_G1I01;RUA GABRIEL GONCALVES MANAUS ALEIXO 69060010 AM SN;MANAUS;-3.095634300;-60.004115600;G0;AMMNS-I01SP182;AMMNS-I01SP182-SS4;MNS_I01_2_GPON_VLAN_103_104_105-ALC;1/1/1/4
EQP0000000029453921;I14G02263;CTO - OPTAP-B-90/10;AMMNS_G1I14;RUA ANITA GARIBALD MANAUS SANTO ANTONIO 69029285 AM 12;MANAUS;-3.114621400;-60.040817500;G0;AMMNS-I14SP283;AMMNS-I14SP283-SS7;MNS_I14_2_GPON_VLAN_188_189_190-ALC;1/1/4/9
EQP0000000029467905;I01GPT1377;CTO - PAD TELEFONICA;AMMNS_G1I01;AVENIDA EPHIGENIO SALLES MANAUS ALEIXO 69060020 AM 2137;MANAUS;-3.080248400;-59.995779400;GPT;AMMNS-I01SP173;AMMNS-I01SP173-SS1;MNS_I01_1_GPON_VLAN_100_101_102-ALC;1/1/8/12
EQP0000000029457472;I13G01054;CTO - OPTAP-B-90/10;AMMNS_G1I13;RUA BARAO DE SURUI MANAUS FLORES 69058260 AM SN;MANAUS;-3.048428100;-59.986516500;G0;AMMNS-I13SP132;AMMNS-I13SP132-SS6;MNS_I13_1_GPON_VLAN_179_180_181-ALC;1/1/5/15
EQP0000000029440196;M04G01767;CTO - PAD TELEFONICA;AMMNS_G1M04;RUA URUGUAI MANAUS FLORES 69028145 AM 21;MANAUS;-3.055720800;-60.010540900;G0;AMMNS-M04SP221;AMMNS-M04SP221-SS7;MNS_M04_2_GPON_VLAN_109_110_111-ALC;1/1/1/1
EQP0000000040378685;I01G02340;CTO SPLITTER 1 8;AMMNS_G1I01;RUA URARIA MANAUS PETROPOLIS 69067512 AM 39;MANAUS;-3.106988600;-59.995882000;G0;AMMNS-I01SP293;AMMNS-I01SP293-SS4;MNS_I01_2_GPON_VLAN_103_104_105-ALC;1/1/7/5
EQP0000000029463461;N07GPT704;CTO - PAD TELEFONICA;AMMNS_G1N07;RUA MEDITERRANEO MANAUS PONTA NEGRA 69037155 AM 621;MANAUS;-3.030640700;-60.088285100;GPT;AMMNS-N07SP88;AMMNS-N07SP88-SS8;MNS_N07_1_GPON_VLAN_130_131_132-ALC;1/1/5/6
EQP0000000029465681;I15G01490;CTO - OPTAP-B-60/40;AMMNS_G1I15;RUA HENRIQUE DE NAVARRA MANAUS JAPIIM 69077430 AM 870;MANAUS;-3.110692300;-59.984088800;G0;AMMNS-I15SP187;AMMNS-I15SP187-SS2;MNS_I15_1_GPON_VLAN_173_174_175-ALC;1/1/8/3
EQP0000000029466502;N11G0149;CTO - OPTAP-B-85/15;AMMNS_G1N11;RUA ARMANDO MENDES MANAUS ARMANDO MENDES 69089321 AM 16;MANAUS;-3.094694100;-59.937282000;G0;AMMNS-N11SP19;AMMNS-N11SP19-SS5;MNS_N11_1_GPON_VLAN_164_165-166-TTP;1/1/1/10
EQP0000000029476415;I01GP1857;TO;AMMNS_G1I01;AVENIDA JOSE DE ARIMATEIA MANAUS ALEIXO 69060081 AM 1001;MANAUS;-3.093010400;-59.999966500;GP;AMMNS-I01SP233;AMMNS-I01SP233-SS1;MNS_I01_2_GPON_VLAN_103_104_105-ALC;1/1/4/3
EQP0000000029476305;I14G01207;CTO - OPTAP-B-90/10;AMMNS_G1I14;RUA SAO MIGUEL MANAUS SANTO ANTONIO 69029550 AM 42;MANAUS;-3.112551200;-60.051085000;G0;AMMNS-I14SP151;AMMNS-I14SP151-SS7;MNS_I14_1_GPON_VLAN_185_186_187-ALC;1/1/7/7
EQP0000000029440375;M04G01156;CTO - PAD TELEFONICA;AMMNS_G1M04;RUA PROFESSOR GERALDO TEIXEIRA MANAUS PARQUE 10 DE NOVEMBRO 69055260 AM 248;MANAUS;-3.085834400;-60.015772400;G0;AMMNS-M04SP145;AMMNS-M04SP145-SS4;MNS_M04_1_GPON_VLAN_106_107_108-ALC;1/1/5/3
EQP0000000045571144;I16G01300;CTO SPLITTER 1 8;AMMNS_G1I16;RUA VIVALDO FILHO MANAUS REDENCAO 69047550 AM 1764;MANAUS;-3.055430200;-60.044133300;G0;AMMNS-I16SP163;AMMNS-I16SP163-SS4;MNS_I16_1_GPON_VLAN_170_171_172-ALC;1/1/5/3
EQP0000000029474762;I14G0815;CTO - OPTAP-B-90/10;AMMNS_G1I14;RUA LIGIA TELES MANAUS COMPENSA 69030330 AM 85;MANAUS;-3.099344900;-60.050482400;G0;AMMNS-I14SP102;AMMNS-I14SP102-SS7;MNS_I14_1_GPON_VLAN_185_186_187-ALC;1/1/5/14
EQP0000000029464621;I06G02048;CTO - OPTAP-B-90/10;AMMNS_G1I06;RUA PUXINARA MANAUS ALVORADA 69042145 AM 525;MANAUS;-3.074191500;-60.055329900;G0;AMMNS-I06SP256;AMMNS-I06SP256-SS8;MNS_I06_2_GPON_VLAN_139_140_141-ALC;1/1/5/9
EQP0000000029437232;M08G0024;CTO - OPTAP-B-90/10;AMMNS_G1M08;AVENIDA ABIURANA MANAUS MAUAZINHO 69075705 AM 585;MANAUS;-3.115383500;-59.963235100;G0;AMMNS-M08SP3;AMMNS-M08SP3-SS8;MNS_M08_1_GPON_VLAN_150_151-DCA;1/1/1/3
EQP0000000073345254;I15G01989;CTO SPLITTER 1 8;AMMNS_G1I15;RUA DOUTOR JOAO LUCIO MANAUS PETROPOLIS 69063494 AM 28;MANAUS;-3.122850800;-59.992364200;G0;AMMNS-I15SP249;AMMNS-I15SP249-SS5;MNS_I15_2_GPON_VLAN_176_177_178-ALC;1/1/4/1
EQP0000000073410504;I15G02131;CTO SPLITTER 1 8;AMMNS_G1I15;RUA ARISTIDES DA ROCHA MANAUS PETROPOLIS 69063540 AM 721;MANAUS;-3.113465700;-59.996096900;G0;AMMNS-I15SP267;AMMNS-I15SP267-SS3;MNS_I15_2_GPON_VLAN_176_177_178-ALC;1/1/5/3
EQP0000000029452230;N07GPT1137;CTO - PAD TELEFONICA;AMMNS_G1N07;AVENIDA DO TURISMO MANAUS PONTA NEGRA 69037005 AM 3065;MANAUS;-3.046708900;-60.078328600;GPT;AMMNS-N07SP143;AMMNS-N07SP143-SS1;MNS_N07_1_GPON_VLAN_130_131_132-ALC;1/1/7/3
EQP0000000029475133;I06G02040;CTO - OPTAP-B-90/10;AMMNS_G1I06;RUA PUXINARA MANAUS ALVORADA 69042145 AM 411;MANAUS;-3.074242100;-60.054638400;G0;AMMNS-I06SP255;AMMNS-I06SP255-SS8;MNS_I06_2_GPON_VLAN_139_140_141-ALC;1/1/5/8
EQP0000000029467434;N02G0550;CTO - PAD TELEFONICA;AMMNS_G1N02;RUA EMILIO MOREIRA MANAUS PRACA 14 DE JANEIRO 69020040 AM 791;MANAUS;-3.125709200;-60.015441300;G0;AMMNS-N02SP69;AMMNS-N02SP69-SS6;MNS_N02_1_GPON_VLAN_118_119_120-ALC;1/1/3/8
EQP0000000029458530;I06G02307;CTO - OPTAP-B-70/30;AMMNS_G1I06;RUA CHUVA DE PRATA MANAUS LIRIO DO VALE 69038562 AM 173;MANAUS;-3.073300100;-60.073177700;G0;AMMNS-I06SP289;AMMNS-I06SP289-SS3;MNS_I06_2_GPON_VLAN_139_140_141-ALC;1/1/6/10
EQP0000000045570744;I16G01301;CTO SPLITTER 1 8;AMMNS_G1I16;RUA GUAJARA MANAUS REDENCAO 69049410 AM 1708;MANAUS;-3.055123400;-60.044043400;G0;AMMNS-I16SP163;AMMNS-I16SP163-SS5;MNS_I16_1_GPON_VLAN_170_171_172-ALC;1/1/5/3
EQP0000000029441108;I05G01587;CTO - PAD TELEFONICA;AMMNS_G1I05;RUA AINOA MANAUS ALVORADA 69042221 AM SN;MANAUS;-3.086051400;-60.052284100;G0;AMMNS-I05SP199;AMMNS-I05SP199-SS3;MNS_I05_1_GPON_VLAN_124_125_126-ALC;1/1/8/8
EQP0000000038482047;N03GPR1569;MINI CDOE 1:2 + 1:8 PRECON SELADA 60/40;AMMNS_G1N03;RUA MISUSHIRO MANAUS PARQUE 10 DE NOVEMBRO 69054672 AM 154;MANAUS;-3.070498800;-59.993905200;GP;AMMNS-N03SP197;AMMNS-N03SP197-SS1;MNS_N03_2_GPON_VLAN_115_116_117_ALC;1/1/1/1
EQP0000000029467956;I06G0579;CTO - PAD TELEFONICA;AMMNS_G1I06;BECO NOVA YORK MANAUS LIRIO DO VALE 69037660 AM 23;MANAUS;-3.084034700;-60.063876400;G0;AMMNS-I06SP73;AMMNS-I06SP73-SS3;MNS_I06_1_GPON_VLAN_136_137_138-ALC;1/1/4/11
EQP0000000029441114;I05G01604;CTO - PAD TELEFONICA;AMMNS_G1I05;RUA MACAUBAS MANAUS ALVORADA 69042825 AM 50;MANAUS;-3.082347000;-60.053384200;G0;AMMNS-I05SP201;AMMNS-I05SP201-SS4;MNS_I05_1_GPON_VLAN_124_125_126-ALC;1/1/8/10
EQP0000000029462294;N07GPT1094;CTO - PAD TELEFONICA;AMMNS_G1N07;ALAMEDA CARLOTA BONFIM MANAUS PONTA NEGRA 69037145 AM 3269;MANAUS;-3.045570300;-60.081331300;GPT;AMMNS-N07SP137;AMMNS-N07SP137-SS6;MNS_N07_1_GPON_VLAN_130_131_132-ALC;1/1/6/13
EQP0000000029455922;I14G01653;CTO - OPTAP-B-85/15;AMMNS_G1I14;RUA RAUL AZEVEDO MANAUS SANTO ANTONIO 69029080 AM 224;MANAUS;-3.114257600;-60.043021800;G0;AMMNS-I14SP207;AMMNS-I14SP207-SS5;MNS_I14_2_GPON_VLAN_188_189_190-ALC;1/1/1/4
EQP0000000029463943;N02G0144;CTO - PAD TELEFONICA;AMMNS_G1N02;AVENIDA EPAMINONDAS MANAUS CENTRO 69010090 AM 783;MANAUS;-3.125862200;-60.026856300;G0;AMMNS-N02SP18;AMMNS-N02SP18-SS8;MNS_N02_1_GPON_VLAN_118_119_120-ALC;1/1/1/13
EQP0000000029440784;I05G01176;CTO - PAD TELEFONICA;AMMNS_G1I05;RUA RODRIGUES ALVES MANAUS DOM PEDRO I 69040180 AM 30;MANAUS;-3.086858500;-60.039821200;G0;AMMNS-I05SP147;AMMNS-I05SP147-SS8;MNS_I05_1_GPON_VLAN_124_125_126-ALC;1/1/7/12
EQP0000000029455207;I14G0770;CTO - OPTAP-B-60/40;AMMNS_G1I14;RUA HIPOLITO DA COSTA MANAUS COMPENSA 69030180 AM 165;MANAUS;-3.104118200;-60.056258000;G0;AMMNS-I14SP97;AMMNS-I14SP97-SS2;MNS_I14_1_GPON_VLAN_185_186_187-ALC;1/1/5/9
EQP0000000029464430;I01GP1737;TO;AMMNS_G1I01;AVENIDA VIA LACTEA MANAUS ALEIXO 69060085 AM 607;MANAUS;-3.090268500;-60.000301600;GP;AMMNS-I01SP218;AMMNS-I01SP218-SS1;MNS_I01_2_GPON_VLAN_103_104_105-ALC;1/1/3/8
EQP0000000038447112;I01GP1752;MINI CDOE 1:2 + 1:8 PRECON SELADA 60/40;AMMNS_G1I01;AVENIDA VIA LACTEA MANAUS ALEIXO 69060085 AM 669;MANAUS;-3.090480100;-59.999892200;GP;AMMNS-I01SP219;AMMNS-I01SP219-SS8;MNS_I01_2_GPON_VLAN_103_104_105-ALC;1/1/3/9
EQP0000000029457995;I05G02403;CTO - OPTAP-B-70/30;AMMNS_G1I05;RUA ALVARO MAIA MANAUS ALVORADA 69043540 AM 83;MANAUS;-3.082316700;-60.036032700;G0;AMMNS-I05SP301;AMMNS-I05SP301-SS3;MNS_I05_2_GPON_VLAN_127_128_129-ALC;1/1/4/9
EQP0000000029468414;I06G0276;CTO - PAD TELEFONICA;AMMNS_G1I06;RUA PERSEU MANAUS SANTO AGOSTINHO 69036670 AM 94;MANAUS;-3.088640600;-60.066509900;G0;AMMNS-I06SP35;AMMNS-I06SP35-SS4;MNS_I06_1_GPON_VLAN_136_137_138-ALC;1/1/2/13
EQP0000000029453412;I14G01659;CTO - OPTAP-B-70/30;AMMNS_G1I14;RUA LAURO BITTENCOURT MANAUS SANTO ANTONIO 69029060 AM 830;MANAUS;-3.115974700;-60.042444100;G0;AMMNS-I14SP208;AMMNS-I14SP208-SS3;MNS_I14_2_GPON_VLAN_188_189_190-ALC;1/1/1/5
EQP0000000029450997;N02G01669;CTO - PAD TELEFONICA;AMMNS_G1N02;AVENIDA CARVALHO LEAL MANAUS SAO FRANCISCO 69079030 AM 1710;MANAUS;-3.120464300;-60.005996400;G0;AMMNS-N02SP209;AMMNS-N02SP209-SS5;MNS_N02_2_GPON_VLAN_121_122_123-ALC;1/1/1/6
EQP0000000029435162;I14G0234;CTO - OPTAP-B-60/40;AMMNS_G1I14;RUA PEDRO ELISIARIO MANAUS COMPENSA 69035570 AM 66;MANAUS;-3.106008100;-60.061548000;G0;AMMNS-I14SP30;AMMNS-I14SP30-SS2;MNS_I14_1_GPON_VLAN_185_186_187-ALC;1/1/2/8
EQP0000000029457987;I05G02423;CTO - OPTAP-B-90/10;AMMNS_G1I05;RUA CABRAL ROLIM MANAUS ALVORADA 69043550 AM 192;MANAUS;-3.080879600;-60.037330100;G0;AMMNS-I05SP303;AMMNS-I05SP303-SS7;MNS_I05_2_GPON_VLAN_127_128_129-ALC;1/1/4/11
EQP0000000029464303;N02G0014;CTO - PAD TELEFONICA;AMMNS_G1N02;AVENIDA AYRAO MANAUS PRACA 14 DE JANEIRO 69020205 AM 748;MANAUS;-3.117507000;-60.024104400;G0;AMMNS-N02SP2;AMMNS-N02SP2-SS6;MNS_N02_1_GPON_VLAN_118_119_120-ALC;1/1/1/2
EQP0000000029453520;I14G0478;CTO - OPTAP-B-90/10;AMMNS_G1I14;RUA EVARISTO DA VEIGA MANAUS COMPENSA 69036350 AM 161;MANAUS;-3.102888000;-60.058221100;G0;AMMNS-I14SP60;AMMNS-I14SP60-SS6;MNS_I14_1_GPON_VLAN_185_186_187-ALC;1/1/4/1
EQP0000000243816849;I14G0921;CTO SPLITTER 1 8;AMMNS_G1I14;RUA JULIO RIBEIRO MANAUS COMPENSA 69030110 AM 185;MANAUS;-3.104556800;-60.053083200;G0;AMMNS-I14SP116;S8_1;BR-AMMNS14-OLT03-NK;1/1/2/2
EQP0000000029463788;N02G0119;CTO - PAD TELEFONICA;AMMNS_G1N02;AVENIDA CONSTANTINO NERY MANAUS PRESIDENTE VARGAS 69025315 AM 605;MANAUS;-3.120162500;-60.026905100;G0;AMMNS-N02SP15;AMMNS-N02SP15-SS7;MNS_N02_1_GPON_VLAN_118_119_120-ALC;1/1/1/10
EQP0000000029452969;N02G0764;CTO - PAD TELEFONICA;AMMNS_G1N02;RUA MARECHAL DEODORO MANAUS CENTRO 69005000 AM 214;MANAUS;-3.135873700;-60.024399800;G0;AMMNS-N02SP96;AMMNS-N02SP96-SS4;MNS_N02_1_GPON_VLAN_118_119_120-ALC;1/1/4/5
EQP0000000029441607;N03G01042;CTO - OPTAP;AMMNS_G1N03;RUA MANOEL LEAO MANAUS PARQUE 10 DE NOVEMBRO 69055670 AM 9;MANAUS;-3.076943600;-60.010051900;G0;AMMNS-N03SP131;AMMNS-N03SP131-SS2;MNS_N03_1_GPON_VLAN_112_113_114_ALC;1/1/5/9
EQP0000000029451297;N02G01506;CTO - PAD TELEFONICA;AMMNS_G1N02;AVENIDA BARCELOS MANAUS PRACA 14 DE JANEIRO 69020200 AM 1858;MANAUS;-3.118853500;-60.012612800;G0;AMMNS-N02SP189;AMMNS-N02SP189-SS2;MNS_N02_1_GPON_VLAN_118_119_120-ALC;1/1/8/2
EQP0000000029466929;I15G01076;CTO - OPTAP-B-80/20;AMMNS_G1I15;AVENIDA JORGE BIVAQUA MANAUS JAPIIM 69078100 AM 53;MANAUS;-3.119113100;-59.986056700;G0;AMMNS-I15SP135;AMMNS-I15SP135-SS4;MNS_I15_1_GPON_VLAN_173_174_175-ALC;1/1/5/10
