UID_EQUIP;CTO_NAME;MODELO;ARMARIO;ENDERECO;MUNICIPIO;LATITUDE;LONGITUDE;TIPO_CTO;SP;SS;NOME_OLT;NOME_PORTA_OLT
EQP0000000082965548;A03G0093;CTO - OPTAP-B 85/15;RJVRD_G1A03;RUA AMADOR BUENO VOLTA REDONDA SANTO AGOSTINHO 27211240 RJ 308;VOLTA REDONDA;-22.488047400;-44.079585400;G0;RJVRD-A03SP12;RJVRD-A03SP12-SS5;VRD_A03_1_GPON_VLAN_109_110_111-ALC;1/1/1/12
EQP0000000083066720;I03G01132;CTO - OPTAP-B 90/10;RJVRD_G1I03;RUA WILSON COPIO VOLTA REDONDA JARDIM AMALIA 27251252 RJ 290;VOLTA REDONDA;-22.515023700;-44.082026000;G0;RJVRD-I03SP142;RJVRD-I03SP142-SS4;VRD_I03_1_GPON_VLAN_234_235_236-HUA;1/1/7/5
EQP0000000075388332;I01GP523;TO;RJVRD_G1I01;RUA PRIMEIRO CABO LUIZ AUGUSTO PEREIRA VOLTA REDONDA ATERRADO 27213240 RJ 240;VOLTA REDONDA;-22.507145400;-44.089524700;GP;RJVRD-I01SP66;RJVRD-I01SP66-SS3;VRD_I01_1_GPON_VLAN_100_101_102-ALC;1/1/3/14
EQP0000000075385209;A03G0506;CTO - PAD TELEFONICA;RJVRD_G1A03;RUA MANAUS VOLTA REDONDA SANTO AGOSTINHO 27210120 RJ 186;VOLTA REDONDA;-22.488808900;-44.075215600;G0;RJVRD-A03SP64;RJVRD-A03SP64-SS2;VRD_A03_1_GPON_VLAN_109_110_111-ALC;1/1/3/12
EQP0000000075392144;A03G0050;CTO - PAD TELEFONICA;RJVRD_G1A03;RUA BARTOLOMEU BUENO DA SILVEIRA VOLTA REDONDA SANTO AGOSTINHO 27211290 RJ 369;VOLTA REDONDA;-22.488377500;-44.085673900;G0;RJVRD-A03SP7;RJVRD-A03SP7-SS2;VRD_A03_1_GPON_VLAN_109_110_111-ALC;1/1/1/7
EQP0000000079721094;I02GP240;MINI CDOE 1:2 + 1:8 PRECON SELADA 60/40;RJVRD_G1I02;RUA QUATORZE VOLTA REDONDA VILA SANTA CECILIA 27260140 RJ 315;VOLTA REDONDA;-22.518146900;-44.107413500;GP;RJVRD-I02SP30;RJVRD-I02SP30-SS8;VRD_I02_1_GPON_VLAN_231_232_233-HUA;1/1/2/7
EQP0000000075393560;A02G0313;CTO - PAD TELEFONICA;RJVRD_G1A02;AVENIDA DAS CAMELIAS VOLTA REDONDA VILA MURY 27281050 RJ 5;VOLTA REDONDA;-22.501050200;-44.102506600;G0;RJVRD-A02SP40;RJVRD-A02SP40-SS1;VRD_A02_1_GPON_VLAN_106_107_108-ALC;1/1/2/11
EQP0000000075383630;A03G0155;CTO - PAD TELEFONICA;RJVRD_G1A03;RUA MIL E QUARENTA E TRES VOLTA REDONDA SANTO AGOSTINHO 27211670 RJ 96;VOLTA REDONDA;-22.482342100;-44.072546100;G0;RJVRD-A03SP20;RJVRD-A03SP20-SS3;VRD_A03_1_GPON_VLAN_109_110_111-ALC;1/1/1/14
EQP0000000075392010;A03G0035;CTO - PAD TELEFONICA;RJVRD_G1A03;RUA B VOLTA REDONDA PARQUE DAS ILHAS 27211010 RJ 142;VOLTA REDONDA;-22.489853800;-44.085355500;G0;RJVRD-A03SP5;RJVRD-A03SP5-SS3;VRD_A03_1_GPON_VLAN_109_110_111-ALC;1/1/1/5
EQP0000000075386318;I03G0562;CTO - PAD TEL-B-60/40;RJVRD_G1I03;RUA GHANDI VOLTA REDONDA MONTE CASTELO 27253123 RJ 446;VOLTA REDONDA;-22.523095500;-44.085659700;G0;RJVRD-I03SP71;RJVRD-I03SP71-SS2;VRD_I03_1_GPON_VLAN_234_235_236-HUA;1/1/3/13
EQP0000000075391564;A05G0323;CTO - PAD TELEFONICA;RJVRD_G1A05;RUA ZURIQUE VOLTA REDONDA PONTE ALTA 27267401 RJ 260;VOLTA REDONDA;-22.536842700;-44.131279700;G0;RJVRD-A05SP41;RJVRD-A05SP41-SS3;VRD_A05_1_GPON_VLAN_112_113_114-ALC;1/1/3/4
EQP0000000075384820;A09G0451;CTO - PAD TELEFONICA;RJVRD_G1A09;RUA SEISCENTOS E SETENTA E UM VOLTA REDONDA SIDEROPOLIS 27257170 RJ 45;VOLTA REDONDA;-22.541208500;-44.087077800;G0;RJVRD-A09SP57;RJVRD-A09SP57-SS3;VRD_A09_1_GPON_VLAN_124_125_126-ALC;1/1/3/3
EQP0000000075382374;I01G0179;CTO - PAD TELEFONICA;RJVRD_G1I01;RUA DOZE DE OUTUBRO VOLTA REDONDA NOSSA SENHORA DAS GRACAS 27215260 RJ 85;VOLTA REDONDA;-22.500681200;-44.093525300;G0;RJVRD-I01SP23;RJVRD-I01SP23-SS3;VRD_I01_1_GPON_VLAN_100_101_102-ALC;1/1/1/16
EQP0000000075384742;A02G0472;CTO - PAD TELEFONICA;RJVRD_G1A02;RUA SAO GABRIEL VOLTA REDONDA NITEROI 27283230 RJ 387;VOLTA REDONDA;-22.498581800;-44.090710900;G0;RJVRD-A02SP59;RJVRD-A02SP59-SS8;VRD_A02_1_GPON_VLAN_106_107_108-ALC;1/1/3/7
EQP0000000075385897;A06G0342;CTO - PAD TELEFONICA;RJVRD_G1A06;RUA DOZE VOLTA REDONDA VILA SANTA CECILIA 27260315 RJ 239;VOLTA REDONDA;-22.516657400;-44.106147200;G0;RJVRD-A06SP43;RJVRD-A06SP43-SS6;VRD_A06_1_GPON_VLAN_115_116_117-ALC;1/1/2/12
EQP0000000075383764;A03G0087;CTO - PAD TELEFONICA;RJVRD_G1A03;LADEIRA TRES VOLTA REDONDA SANTO AGOSTINHO 27211530 RJ 5;VOLTA REDONDA;-22.488101700;-44.080804600;G0;RJVRD-A03SP11;RJVRD-A03SP11-SS7;VRD_A03_1_GPON_VLAN_109_110_111-ALC;1/1/1/11
EQP0000000075393317;I03G0142;CTO - PAD TEL-B-90/10;RJVRD_G1I03;RUA OITOCENTOS E VINTE E SETE VOLTA REDONDA CASA DE PEDRA 27258315 RJ 41;VOLTA REDONDA;-22.538740700;-44.074488300;G0;RJVRD-I03SP18;RJVRD-I03SP18-SS6;VRD_I03_1_GPON_VLAN_234_235_236-HUA;1/1/1/13
EQP0000000075383620;A05G0032;CTO - PAD TELEFONICA;RJVRD_G1A05;RUA CAXAMBU VOLTA REDONDA MINERLANDIA 27264760 RJ 346;VOLTA REDONDA;-22.534818900;-44.122007200;G0;RJVRD-A05SP4;RJVRD-A05SP4-SS8;VRD_A05_1_GPON_VLAN_112_113_114-ALC;1/1/1/4
EQP0000000075390633;I03G0790;CTO - PAD TEL-B-90/10;RJVRD_G1I03;RUA GUIMARAES PASSOS VOLTA REDONDA JARDIM AMALIA 27251270 RJ 120;VOLTA REDONDA;-22.512742200;-44.082982100;G0;RJVRD-I03SP99;RJVRD-I03SP99-SS6;VRD_I03_1_GPON_VLAN_234_235_236-HUA;1/1/5/3
EQP0000000075382259;I03GP266;TO;RJVRD_G1I03;RUA ANTONIO DONOLA VOLTA REDONDA JARDIM BELVEDERE 27258604 RJ 35;VOLTA REDONDA;-22.530233800;-44.077473700;GP;RJVRD-I03SP34;RJVRD-I03SP34-SS2;VRD_I03_1_GPON_VLAN_234_235_236-HUA;1/1/7/9
EQP0000000075392248;I03G01053;CTO - PAD TEL-B-85/15;RJVRD_G1I03;RUA DOUTOR ALTAIR NOGUEIRA DA SILVA VOLTA REDONDA SAO JOAO 27253260 RJ 28;VOLTA REDONDA;-22.514140300;-44.093364300;G0;RJVRD-I03SP132;RJVRD-I03SP132-SS5;VRD_I03_1_GPON_VLAN_234_235_236-HUA;1/1/6/13
EQP0000000075387075;A08G0504;CTO - PAD TELEFONICA;RJVRD_G1A08;RUA JOSE LOESCH PEREIRA VOLTA REDONDA JARDIM AMALIA 27251227 RJ 132;VOLTA REDONDA;-22.515482100;-44.073565700;G0;RJVRD-A08SP63;RJVRD-A08SP63-SS8;VRD_A08_1_GPON_VLAN_121_122_123-ALC;1/1/3/10
EQP0000000075383397;A06G0435;CTO - PAD TELEFONICA;RJVRD_G1A06;RUA CINQUENTA E QUATRO VOLTA REDONDA VILA SANTA CECILIA 27261060 RJ 31;VOLTA REDONDA;-22.523068800;-44.101897800;G0;RJVRD-A06SP55;RJVRD-A06SP55-SS3;VRD_A06_1_GPON_VLAN_115_116_117-ALC;1/1/3/3
EQP0000000075388064;I03G0647;CTO - PAD TEL-B-90/10;RJVRD_G1I03;RUA EVARISTO DA VEIGA VOLTA REDONDA JARDIM AMALIA 27250680 RJ 284;VOLTA REDONDA;-22.509936600;-44.074946600;G0;RJVRD-I03SP81;RJVRD-I03SP81-SS7;VRD_I03_1_GPON_VLAN_234_235_236-HUA;1/1/4/1
EQP0000000075386306;I03G0567;CTO - PAD TEL-B-90/10;RJVRD_G1I03;RUA CINCO VOLTA REDONDA MONTE CASTELO 27253158 RJ 60;VOLTA REDONDA;-22.521694900;-44.087381400;G0;RJVRD-I03SP71;RJVRD-I03SP71-SS7;VRD_I03_1_GPON_VLAN_234_235_236-HUA;1/1/3/13
EQP0000000075385522;A02G0329;CTO - PAD TELEFONICA;RJVRD_G1A02;AVENIDA DOS OITIS VOLTA REDONDA VILA MURY 27281600 RJ 591;VOLTA REDONDA;-22.499837000;-44.105380700;G0;RJVRD-A02SP42;RJVRD-A02SP42-SS1;VRD_A02_1_GPON_VLAN_106_107_108-ALC;1/1/2/13
EQP0000000075383506;A03G0449;CTO - PAD TELEFONICA;RJVRD_G1A03;RUA MIL E QUARENTA E DOIS VOLTA REDONDA SANTO AGOSTINHO 27210165 RJ 23;VOLTA REDONDA;-22.485618300;-44.072915400;G0;RJVRD-A03SP57;RJVRD-A03SP57-SS1;VRD_A03_1_GPON_VLAN_109_110_111-ALC;1/1/3/5
EQP0000000075387358;A07G0084;CTO - PAD TELEFONICA;RJVRD_G1A07;RUA TREZENTOS E TRINTA E OITO VOLTA REDONDA MONTE CASTELO 27253200 RJ 295;VOLTA REDONDA;-22.521188100;-44.091635700;G0;RJVRD-A07SP11;RJVRD-A07SP11-SS4;VRD_A07_1_GPON_VLAN_118_119_120-ALC;1/1/1/11
EQP0000000075385529;A05G0056;CTO - PAD TELEFONICA;RJVRD_G1A05;RUA POCOS DE CALDAS VOLTA REDONDA MINERLANDIA 27264160 RJ 253;VOLTA REDONDA;-22.531566200;-44.123161700;G0;RJVRD-A05SP7;RJVRD-A05SP7-SS8;VRD_A05_1_GPON_VLAN_112_113_114-ALC;1/1/1/7
EQP0000000075384902;A03G0203;CTO - PAD TELEFONICA;RJVRD_G1A03;RUA NOVO MEXICO VOLTA REDONDA SANTO AGOSTINHO 27211450 RJ 181;VOLTA REDONDA;-22.485828300;-44.080713900;G0;RJVRD-A03SP26;RJVRD-A03SP26-SS3;VRD_A03_1_GPON_VLAN_109_110_111-ALC;1/1/2/4
EQP0000000075384798;A06G0065;CTO - PAD TELEFONICA;RJVRD_G1A06;RUA DUZENTOS E VINTE E TRES VOLTA REDONDA CONFORTO 27263585 RJ 97;VOLTA REDONDA;-22.523183600;-44.120962900;G0;RJVRD-A06SP9;RJVRD-A06SP9-SS1;VRD_A06_1_GPON_VLAN_115_116_117-ALC;1/1/1/9
EQP0000000075388651;A06GP341;TO;RJVRD_G1A06;RUA QUATORZE VOLTA REDONDA JARDIM VENEZA 27285340 RJ 164;VOLTA REDONDA;-22.517074500;-44.105871900;GP;RJVRD-A06SP43;RJVRD-A06SP43-SS5;VRD_A06_1_GPON_VLAN_115_116_117-ALC;1/1/2/12
EQP0000000075393557;A03G0051;CTO - PAD TELEFONICA;RJVRD_G1A03;RUA ONZE-B VOLTA REDONDA SANTO AGOSTINHO 27211328 RJ 132;VOLTA REDONDA;-22.486374500;-44.086134600;G0;RJVRD-A03SP7;RJVRD-A03SP7-SS3;VRD_A03_1_GPON_VLAN_109_110_111-ALC;1/1/1/7
EQP0000000075383589;A03G0067;CTO - PAD TELEFONICA;RJVRD_G1A03;RUA CALIFORNIA VOLTA REDONDA SANTO AGOSTINHO 27211320 RJ 249;VOLTA REDONDA;-22.485170900;-44.083857500;G0;RJVRD-A03SP9;RJVRD-A03SP9-SS3;VRD_A03_1_GPON_VLAN_109_110_111-ALC;1/1/1/9
EQP0000000075388470;I03G0828;CTO - PAD TEL-B-80/20;RJVRD_G1I03;RODOVIA BR 393 - AVENIDA GETULIO VARGAS VOLTA REDONDA SAO JOAO 27253410 RJ 495;VOLTA REDONDA;-22.511918000;-44.089846200;G0;RJVRD-I03SP104;RJVRD-I03SP104-SS4;VRD_I03_1_GPON_VLAN_234_235_236-HUA;1/1/5/8
EQP0000000075386525;I02G0736;CTO - PAD TEL-B-90/10;RJVRD_G1I02;RUA SAO JORGE VOLTA REDONDA SAO LUCAS 27264130 RJ 45;VOLTA REDONDA;-22.529850700;-44.120145700;G0;RJVRD-I02SP92;RJVRD-I02SP92-SS8;VRD_I02_1_GPON_VLAN_231_232_233-HUA;1/1/5/0
EQP0000000075387989;A07G0340;CTO - PAD TELEFONICA;RJVRD_G1A07;RUA DOM LUIZ DE VASCONCELOS VOLTA REDONDA MONTE CASTELO 27253030 RJ 114;VOLTA REDONDA;-22.519545800;-44.090717200;G0;RJVRD-A07SP43;RJVRD-A07SP43-SS4;VRD_A07_1_GPON_VLAN_118_119_120-ALC;1/1/2/14
EQP0000000075392290;A07G0494;CTO - PAD TELEFONICA;RJVRD_G1A07;RUA VISCONDE DE TAUNAY VOLTA REDONDA SAO JOAO 27253380 RJ 31;VOLTA REDONDA;-22.514627700;-44.092601800;G0;RJVRD-A07SP62;RJVRD-A07SP62-SS6;VRD_A07_1_GPON_VLAN_118_119_120-ALC;1/1/3/10
EQP0000000075385789;A03G0037;CTO - PAD TELEFONICA;RJVRD_G1A03;RUA D VOLTA REDONDA PARQUE DAS ILHAS 27211035 RJ 284;VOLTA REDONDA;-22.491228000;-44.085072400;G0;RJVRD-A03SP5;RJVRD-A03SP5-SS5;VRD_A03_1_GPON_VLAN_109_110_111-ALC;1/1/1/5
EQP0000000075386925;A08G0324;CTO - PAD TELEFONICA;RJVRD_G1A08;RUA GENERAL SAMPAIO VOLTA REDONDA SAO GERALDO 27253570 RJ 232;VOLTA REDONDA;-22.514915100;-44.086156200;G0;RJVRD-A08SP41;RJVRD-A08SP41-SS4;VRD_A08_1_GPON_VLAN_121_122_123-ALC;1/1/2/11
EQP0000000075387427;I02G0308;CTO - PAD TEL-B-80/20;RJVRD_G1I02;RUA DOIS VOLTA REDONDA JARDIM SUICA 27267430 RJ 151;VOLTA REDONDA;-22.532854000;-44.136328200;G0;RJVRD-I02SP39;RJVRD-I02SP39-SS4;VRD_I02_1_GPON_VLAN_231_232_233-HUA;1/1/3/0
EQP0000000075387159;I03G0156;CTO - PAD TEL-B-80/20;RJVRD_G1I03;RUA SETECENTOS E SESSENTA VOLTA REDONDA CASA DE PEDRA 27257270 RJ 292;VOLTA REDONDA;-22.541781700;-44.075374700;G0;RJVRD-I03SP20;RJVRD-I03SP20-SS4;VRD_I03_1_GPON_VLAN_234_235_236-HUA;1/1/1/15
EQP0000000079571286;A06GP322;MINI CDOE 1:2 + 1:8 PRECON SELADA 60/40;RJVRD_G1A06;LARGO NOVE DE ABRIL VOLTA REDONDA VILA SANTA CECILIA 27260180 RJ 27;VOLTA REDONDA;-22.517278800;-44.106783800;GP;RJVRD-A06SP41;RJVRD-A06SP41-SS2;VRD_A06_1_GPON_VLAN_115_116_117-ALC;1/1/2/10
EQP0000000079663114;I02GP132;MINI CDOE 1:2 + 1:8 PRECON SELADA 60/40;RJVRD_G1I02;RUA VINTE E CINCO-A VOLTA REDONDA VILA SANTA CECILIA 27260160 RJ 81;VOLTA REDONDA;-22.516840200;-44.105718300;GP;RJVRD-I02SP17;RJVRD-I02SP17-SS4;VRD_I02_1_GPON_VLAN_231_232_233-HUA;1/1/1/10
EQP0000000075386511;I02G0738;CTO - PAD TEL-B-60/40;RJVRD_G1I02;RUA PEQUERI VOLTA REDONDA MINERLANDIA 27264790 RJ 86;VOLTA REDONDA;-22.533861900;-44.122966400;G0;RJVRD-I02SP93;RJVRD-I02SP93-SS2;VRD_I02_1_GPON_VLAN_231_232_233-HUA;1/1/5/1
EQP0000000075391661;A01GP214;TO;RJVRD_G1A01;AVENIDA ANTONIO DE ALMEIDA VOLTA REDONDA RETIRO 27275040 RJ 707;VOLTA REDONDA;-22.500245500;-44.118479800;GP;RJVRD-A01SP27;RJVRD-A01SP27-SS6;VRD_A01_1_GPON_VLAN_103_104_105-ALC;1/1/2/5
EQP0000000075387708;A07G0150;CTO - PAD TELEFONICA;RJVRD_G1A07;RUA QUARENTA E UM-F VOLTA REDONDA VILA SANTA CECILIA 27255455 RJ 48;VOLTA REDONDA;-22.521632000;-44.099553000;G0;RJVRD-A07SP19;RJVRD-A07SP19-SS6;VRD_A07_1_GPON_VLAN_118_119_120-ALC;1/1/1/12
EQP0000000075386045;I03G0706;CTO - PAD TEL-B-60/40;RJVRD_G1I03;RUA SEBASTIAO ANNECHINO VOLTA REDONDA JARDIM AMALIA 27251186 RJ 57;VOLTA REDONDA;-22.516992200;-44.070173100;G0;RJVRD-I03SP89;RJVRD-I03SP89-SS2;VRD_I03_1_GPON_VLAN_234_235_236-HUA;1/1/4/9
EQP0000000075391558;A03G0218;CTO - PAD TELEFONICA;RJVRD_G1A03;RUA MIL E TRINTA E TRES A VOLTA REDONDA VOLTA GRANDE 27211800 RJ 120;VOLTA REDONDA;-22.485214600;-44.077395600;G0;RJVRD-A03SP28;RJVRD-A03SP28-SS2;VRD_A03_1_GPON_VLAN_109_110_111-ALC;1/1/2/6
EQP0000000075386034;I03G0712;CTO - PAD TEL-B-90/10;RJVRD_G1I03;RUA VEREADOR BENEDITO FONSECA VOLTA REDONDA JARDIM AMALIA 27251193 RJ 333;VOLTA REDONDA;-22.512038800;-44.072357000;G0;RJVRD-I03SP89;RJVRD-I03SP89-SS8;VRD_I03_1_GPON_VLAN_234_235_236-HUA;1/1/4/9
EQP0000000075386736;A07G0480;CTO - PAD TELEFONICA;RJVRD_G1A07;RUA GUSTAVO LIRA VOLTA REDONDA SAO JOAO 27253280 RJ 259;VOLTA REDONDA;-22.513437300;-44.092847200;G0;RJVRD-A07SP60;RJVRD-A07SP60-SS8;VRD_A07_1_GPON_VLAN_118_119_120-ALC;1/1/3/8
EQP0000000075391662;A06GP347;TO;RJVRD_G1A06;RUA QUATORZE VOLTA REDONDA VILA SANTA CECILIA 27260140 RJ 350;VOLTA REDONDA;-22.517573700;-44.107704700;GP;RJVRD-A06SP44;RJVRD-A06SP44-SS3;VRD_A06_1_GPON_VLAN_115_116_117-ALC;1/1/2/13
EQP0000000075387318;I02G0568;CTO - PAD TEL-B-90/10;RJVRD_G1I02;RUA VEREADOR FRANCISCO EVANGELISTA DELGADO VOLTA REDONDA SAO LUCAS 27263672 RJ 52;VOLTA REDONDA;-22.522469900;-44.116366500;G0;RJVRD-I02SP71;RJVRD-I02SP71-SS8;VRD_I02_1_GPON_VLAN_231_232_233-HUA;1/1/4/9
EQP0000000079576510;A06GP340;MINI CDOE 1:2 + 1:8 PRECON SELADA 60/40;RJVRD_G1A06;RUA QUATORZE VOLTA REDONDA JARDIM VENEZA 27285340 RJ 164;VOLTA REDONDA;-22.517074500;-44.105871900;GP;RJVRD-A06SP43;RJVRD-A06SP43-SS4;VRD_A06_1_GPON_VLAN_115_116_117-ALC;1/1/2/12
EQP0000000075385872;A03G0478;CTO - PAD TELEFONICA;RJVRD_G1A03;RUA BOA VISTA VOLTA REDONDA SANTO AGOSTINHO 27214070 RJ 200;VOLTA REDONDA;-22.487890000;-44.072595500;G0;RJVRD-A03SP60;RJVRD-A03SP60-SS6;VRD_A03_1_GPON_VLAN_109_110_111-ALC;1/1/3/8
EQP0000000075384923;A05G0208;CTO - PAD TELEFONICA;RJVRD_G1A05;RUA FERNANDO TEDESCO VOLTA REDONDA SAO LUCAS 27265280 RJ 563;VOLTA REDONDA;-22.529808600;-44.123959700;G0;RJVRD-A05SP26;RJVRD-A05SP26-SS8;VRD_A05_1_GPON_VLAN_112_113_114-ALC;1/1/2/7
EQP0000000075387267;I02G0297;CTO - PAD TELEFONICA - B;RJVRD_G1I02;RUA JOSE MIGUEL VOLTA REDONDA PONTE ALTA 27267450 RJ 173;VOLTA REDONDA;-22.535165900;-44.132506700;G0;RJVRD-I02SP38;RJVRD-I02SP38-SS1;VRD_I02_1_GPON_VLAN_231_232_233-HUA;1/1/2/15
EQP0000000075387148;I02G0594;CTO - PAD TEL-B-60/40;RJVRD_G1I02;RUA JUIZ DE FORA VOLTA REDONDA MINERLANDIA 27335040 RJ 172;VOLTA REDONDA;-22.535692400;-44.122895300;G0;RJVRD-I02SP75;RJVRD-I02SP75-SS2;VRD_I02_1_GPON_VLAN_231_232_233-HUA;1/1/4/13
EQP0000000075384093;A03G0219;CTO - PAD TELEFONICA;RJVRD_G1A03;RUA MIL E TRINTA E UM-A VOLTA REDONDA SANTO AGOSTINHO 27211360 RJ 119;VOLTA REDONDA;-22.485446700;-44.077839400;G0;RJVRD-A03SP28;RJVRD-A03SP28-SS3;VRD_A03_1_GPON_VLAN_109_110_111-ALC;1/1/2/6
EQP0000000075384589;A02G0477;CTO - PAD TELEFONICA;RJVRD_G1A02;RUA SAO PEDRO VOLTA REDONDA NITEROI 27283790 RJ 94;VOLTA REDONDA;-22.499552100;-44.089571000;G0;RJVRD-A02SP60;RJVRD-A02SP60-SS5;VRD_A02_1_GPON_VLAN_106_107_108-ALC;1/1/3/8
EQP0000000079620195;I01GP10;MINI CDOE 1:2 + 1:8 PRECON SELADA 60/40;RJVRD_G1I01;RUA SIMAO DA CUNHA GAGO VOLTA REDONDA ATERRADO 27213170 RJ 438;VOLTA REDONDA;-22.504550200;-44.088814200;GP;RJVRD-I01SP2;RJVRD-I01SP2-SS2;VRD_I01_1_GPON_VLAN_100_101_102-ALC;1/1/1/2
EQP0000000075393572;I03G0736;CTO - PAD TEL-B-90/10;RJVRD_G1I03;RUA ALMIRANTE BARROSO VOLTA REDONDA JARDIM AMALIA 27251085 RJ 80;VOLTA REDONDA;-22.510146900;-44.076147900;G0;RJVRD-I03SP92;RJVRD-I03SP92-SS8;VRD_I03_1_GPON_VLAN_234_235_236-HUA;1/1/4/12
EQP0000000075393572;I03G0736;CTO - PAD TEL-B-90/10;RJVRD_G1I03;RUA ALMIRANTE BARROSO VOLTA REDONDA JARDIM AMALIA 27251085 RJ 80;VOLTA REDONDA;-22.510146900;-44.076147900;G0;RJVRD-I03SP92;RJVRD-I03SP92-SS8;VRD_I03_1_GPON_VLAN_234_235_236-HUA;1/1/4/12
EQP0000000075393559;A03G0153;CTO - PAD TELEFONICA;RJVRD_G1A03;RUA MIL E QUARENTA E TRES VOLTA REDONDA SANTO AGOSTINHO 27211670 RJ 25;VOLTA REDONDA;-22.482905500;-44.075139200;G0;RJVRD-A03SP20;RJVRD-A03SP20-SS1;VRD_A03_1_GPON_VLAN_109_110_111-ALC;1/1/1/14
EQP0000000075390991;I03G01065;CTO - PAD TELEFONICA - B;RJVRD_G1I03;RUA MIGUEL JOSE PEREIRA VOLTA REDONDA SAO GERALDO 27200000 RJ 47;VOLTA REDONDA;-22.519041900;-44.086498000;G0;RJVRD-I03SP134;RJVRD-I03SP134-SS1;VRD_I03_1_GPON_VLAN_234_235_236-HUA;1/1/6/15
EQP0000000075393132;I01G0300;CTO - PAD TELEFONICA;RJVRD_G1I01;RUA QUINHENTOS E CINQUENTA E DOIS VOLTA REDONDA JARDIM PARAIBA 27215110 RJ 30;VOLTA REDONDA;-22.509584200;-44.095248300;G0;RJVRD-I01SP38;RJVRD-I01SP38-SS4;VRD_I01_1_GPON_VLAN_100_101_102-ALC;1/1/2/9
EQP0000000075383624;A05G0029;CTO - PAD TELEFONICA;RJVRD_G1A05;RUA JUIZ DE FORA VOLTA REDONDA MINERLANDIA 27335040 RJ 232;VOLTA REDONDA;-22.535943800;-44.123161100;G0;RJVRD-A05SP4;RJVRD-A05SP4-SS5;VRD_A05_1_GPON_VLAN_112_113_114-ALC;1/1/1/4
EQP0000000075384070;A02G0204;CTO - PAD TELEFONICA;RJVRD_G1A02;RUA JOSE DA CONCEICAO VOLTA REDONDA VOLDAC 27285451 RJ 86;VOLTA REDONDA;-22.489434200;-44.093847100;G0;RJVRD-A02SP26;RJVRD-A02SP26-SS4;VRD_A02_1_GPON_VLAN_106_107_108-ALC;1/1/2/3
EQP0000000075385716;A05G0176;CTO - PAD TELEFONICA;RJVRD_G1A05;RUA GOIAS VOLTA REDONDA EUCALIPTAL 27264080 RJ 153;VOLTA REDONDA;-22.526855800;-44.122006000;G0;RJVRD-A05SP22;RJVRD-A05SP22-SS8;VRD_A05_1_GPON_VLAN_112_113_114-ALC;1/1/2/3
EQP0000000075392153;A03G0445;CTO - PAD TELEFONICA;RJVRD_G1A03;RUA MIL E TRINTA E OITO VOLTA REDONDA SANTO AGOSTINHO 27210225 RJ 4;VOLTA REDONDA;-22.486587200;-44.072421900;G0;RJVRD-A03SP56;RJVRD-A03SP56-SS5;VRD_A03_1_GPON_VLAN_109_110_111-ALC;1/1/3/4
EQP0000000075383596;A02G0029;CTO - PAD TELEFONICA;RJVRD_G1A02;AVENIDA SAVIO COTA DE ALMEIDA GAMA VOLTA REDONDA NITEROI 27283526 RJ 1730;VOLTA REDONDA;-22.497713800;-44.106017500;G0;RJVRD-A02SP4;RJVRD-A02SP4-SS5;VRD_A02_1_GPON_VLAN_106_107_108-ALC;1/1/1/4
EQP0000000075382259;I03GP266;TO;RJVRD_G1I03;RUA ANTONIO DONOLA VOLTA REDONDA JARDIM BELVEDERE 27258604 RJ 35;VOLTA REDONDA;-22.530233800;-44.077473700;GP;RJVRD-I03SP34;RJVRD-I03SP34-SS2;VRD_I03_1_GPON_VLAN_234_235_236-HUA;1/1/7/9
EQP0000000075383466;A03G0149;CTO - PAD TELEFONICA;RJVRD_G1A03;RUA MIL E QUARENTA E TRES VOLTA REDONDA SANTO AGOSTINHO 27211670 RJ 4;VOLTA REDONDA;-22.482853300;-44.075947000;G0;RJVRD-A03SP19;RJVRD-A03SP19-SS5;VRD_A03_1_GPON_VLAN_109_110_111-ALC;1/1/1/13
EQP0000000075386531;I02G0733;CTO - PAD TEL-B-85/15;RJVRD_G1I02;RUA FERNANDO TEDESCO VOLTA REDONDA SAO LUCAS 27265280 RJ 421;VOLTA REDONDA;-22.528679700;-44.124394100;G0;RJVRD-I02SP92;RJVRD-I02SP92-SS5;VRD_I02_1_GPON_VLAN_231_232_233-HUA;1/1/5/0
EQP0000000075381254;A01G0359;CTO - PAD TELEFONICA;RJVRD_G1A01;AVENIDA MARIA CECILIA VOLTA REDONDA RETIRO 27275660 RJ 297;VOLTA REDONDA;-22.499237200;-44.117219700;G0;RJVRD-A01SP45;RJVRD-A01SP45-SS8;VRD_A01_1_GPON_VLAN_103_104_105-ALC;1/1/3/1
EQP0000000075393575;I03G0982;CTO - PAD TEL-B-90/10;RJVRD_G1I03;RUA DEZ A VOLTA REDONDA VILA SANTA CECILIA 27255037 RJ 557;VOLTA REDONDA;-22.513318000;-44.096414300;G0;RJVRD-I03SP123;RJVRD-I03SP123-SS6;VRD_I03_1_GPON_VLAN_234_235_236-HUA;1/1/6/4
EQP0000000075387843;A06GP500;TO;RJVRD_G1A06;RUA TRINTA E UM-A VOLTA REDONDA VILA SANTA CECILIA 27261305 RJ 23;VOLTA REDONDA;-22.519046700;-44.105991200;GP;RJVRD-A06SP63;RJVRD-A06SP63-SS4;VRD_A06_1_GPON_VLAN_115_116_117-ALC;1/1/3/11
EQP0000000075388037;I01GP445;TO;RJVRD_G1I01;RUA COROADOS VOLTA REDONDA ATERRADO 27213050 RJ 56;VOLTA REDONDA;-22.507389700;-44.089200800;GP;RJVRD-I01SP56;RJVRD-I01SP56-SS5;VRD_I01_1_GPON_VLAN_100_101_102-ALC;1/1/3/2
EQP0000000075382968;I04G0429;CTO - OPTAP;RJVRD_G1I04;AVENIDA DA INTEGRACAO VOLTA REDONDA ATERRADO 27213350 RJ 60;VOLTA REDONDA;-22.504862400;-44.076087500;G0;RJVRD-I04SP54;RJVRD-I04SP54-SS5;VRD_I04_1_GPON_VLAN_127_128_129-ALC;1/1/3/8
EQP0000000075383945;A02G0363;CTO - PAD TELEFONICA;RJVRD_G1A02;RUA GIL FERREIRA VOLTA REDONDA VILA MURY 27283570 RJ 170;VOLTA REDONDA;-22.497264300;-44.096376200;G0;RJVRD-A02SP46;RJVRD-A02SP46-SS3;VRD_A02_1_GPON_VLAN_106_107_108-ALC;1/1/3/1
EQP0000000075383036;I01G0033;CTO - PAD TELEFONICA;RJVRD_G1I01;RUA DESEMBARGADOR CEZAR SALAMONDE VOLTA REDONDA ATERRADO 27213061 RJ 410;VOLTA REDONDA;-22.506470700;-44.087604000;G0;RJVRD-I01SP5;RJVRD-I01SP5-SS1;VRD_I01_1_GPON_VLAN_100_101_102-ALC;1/1/1/5
EQP0000000075382375;I01G0178;CTO - PAD TELEFONICA;RJVRD_G1I01;RUA DOZE DE OUTUBRO VOLTA REDONDA NOSSA SENHORA DAS GRACAS 27215260 RJ 121;VOLTA REDONDA;-22.500534500;-44.093885000;G0;RJVRD-I01SP23;RJVRD-I01SP23-SS2;VRD_I01_1_GPON_VLAN_100_101_102-ALC;1/1/1/16
EQP0000000075386628;I03G0471;CTO - PAD TEL-B-90/10;RJVRD_G1I03;RUA SESSENTA E DOIS-A VOLTA REDONDA SESSENTA 27256005 RJ 43;VOLTA REDONDA;-22.523665500;-44.091763000;G0;RJVRD-I03SP59;RJVRD-I03SP59-SS7;VRD_I03_1_GPON_VLAN_234_235_236-HUA;1/1/3/4
EQP0000000075391555;A02G0206;CTO - PAD TELEFONICA;RJVRD_G1A02;RUA CARLOS MARQUES VOLTA REDONDA VOLDAC 27285270 RJ 15;VOLTA REDONDA;-22.494285700;-44.091796200;G0;RJVRD-A02SP26;RJVRD-A02SP26-SS6;VRD_A02_1_GPON_VLAN_106_107_108-ALC;1/1/2/3
EQP0000000075380956;A01G0189;CTO - PAD TELEFONICA;RJVRD_G1A01;AVENIDA ANTONIO DE ALMEIDA VOLTA REDONDA RETIRO 27275040 RJ SN;VOLTA REDONDA;-22.500514400;-44.114095000;G0;RJVRD-A01SP24;RJVRD-A01SP24-SS5;VRD_A01_1_GPON_VLAN_103_104_105-ALC;1/1/2/2
EQP0000000075387863;I01GP438;TO;RJVRD_G1I01;RUA COROADOS VOLTA REDONDA ATERRADO 27213050 RJ 156;VOLTA REDONDA;-22.506658300;-44.088909500;GP;RJVRD-I01SP55;RJVRD-I01SP55-SS6;VRD_I01_1_GPON_VLAN_100_101_102-ALC;1/1/3/1
EQP0000000088308418;I01GP455;MINI CDOE 1:2 + 1:8 PRECON SELADA 60/40;RJVRD_G1I01;RUA PRIMEIRO CABO LUIZ AUGUSTO PEREIRA VOLTA REDONDA ATERRADO 27213240 RJ 240;VOLTA REDONDA;-22.507145400;-44.089524700;GP;RJVRD-I01SP57;RJVRD-I01SP57-SS7;VRD_I01_1_GPON_VLAN_100_101_102-ALC;1/1/3/3
EQP0000000075387427;I02G0308;CTO - PAD TEL-B-80/20;RJVRD_G1I02;RUA DOIS VOLTA REDONDA JARDIM SUICA 27267430 RJ 151;VOLTA REDONDA;-22.532854000;-44.136328200;G0;RJVRD-I02SP39;RJVRD-I02SP39-SS4;VRD_I02_1_GPON_VLAN_231_232_233-HUA;1/1/3/0
EQP0000000075381581;A01G0327;CTO - PAD TELEFONICA;RJVRD_G1A01;AVENIDA SANTA RITA VOLTA REDONDA RETIRO 27277210 RJ 165;VOLTA REDONDA;-22.498789200;-44.125307100;G0;RJVRD-A01SP41;RJVRD-A01SP41-SS7;VRD_A01_1_GPON_VLAN_103_104_105-ALC;1/1/2/13
EQP0000000075385892;A03G0447;CTO - PAD TELEFONICA;RJVRD_G1A03;RUA MIL E QUARENTA VOLTA REDONDA SANTO AGOSTINHO 27210170 RJ 16;VOLTA REDONDA;-22.486071800;-44.072601300;G0;RJVRD-A03SP56;RJVRD-A03SP56-SS7;VRD_A03_1_GPON_VLAN_109_110_111-ALC;1/1/3/4
EQP0000000075383882;A08G0073;CTO - PAD TELEFONICA;RJVRD_G1A08;RUA FERES JOSE VOLTA REDONDA JARDIM AMALIA 27251183 RJ 513;VOLTA REDONDA;-22.510870200;-44.070965400;G0;RJVRD-A08SP10;RJVRD-A08SP10-SS1;VRD_A08_1_GPON_VLAN_121_122_123-ALC;1/1/1/10
EQP0000000075386793;I02G0424;CTO - PAD TEL-B-90/10;RJVRD_G1I02;RUA CARMEM MIRANDA VOLTA REDONDA EUCALIPTAL 27264040 RJ 116;VOLTA REDONDA;-22.526433100;-44.122675300;G0;RJVRD-I02SP53;RJVRD-I02SP53-SS8;VRD_I02_1_GPON_VLAN_231_232_233-HUA;1/1/3/7
EQP0000000075392138;A05G0169;CTO - PAD TELEFONICA;RJVRD_G1A05;RUA NILO PECANHA VOLTA REDONDA EUCALIPTAL 27263140 RJ 242;VOLTA REDONDA;-22.529139200;-44.119278600;G0;RJVRD-A05SP22;RJVRD-A05SP22-SS1;VRD_A05_1_GPON_VLAN_112_113_114-ALC;1/1/2/3
EQP0000000075387339;A09GPT2;CTO - PAD TELEFONICA;RJVRD_G1A09;RUA J VOLTA REDONDA CIDADE NOVA 27258310 RJ 8;VOLTA REDONDA;-22.535200800;-44.063105100;GPT;RJVRD-A09SP1;RJVRD-A09SP1-SS2;VRD_A09_1_GPON_VLAN_124_125_126-ALC;1/1/1/1
EQP0000000075392014;A02G0328;CTO - PAD TELEFONICA;RJVRD_G1A02;RUA JOSE ALVES PEREIRA VOLTA REDONDA VILA MURY 27281680 RJ 152;VOLTA REDONDA;-22.498591600;-44.101460000;G0;RJVRD-A02SP41;RJVRD-A02SP41-SS8;VRD_A02_1_GPON_VLAN_106_107_108-ALC;1/1/2/12
EQP0000000075385625;A03G0043;CTO - PAD TELEFONICA;RJVRD_G1A03;RUA WASHINGTON VOLTA REDONDA SANTO AGOSTINHO 27211580 RJ 169;VOLTA REDONDA;-22.488728800;-44.083841800;G0;RJVRD-A03SP6;RJVRD-A03SP6-SS3;VRD_A03_1_GPON_VLAN_109_110_111-ALC;1/1/1/6
EQP0000000075384126;A02G0503;CTO - PAD TELEFONICA;RJVRD_G1A02;RUA JOANA D'ARC VOLTA REDONDA NITEROI 27283340 RJ 400;VOLTA REDONDA;-22.495019400;-44.097679900;G0;RJVRD-A02SP63;RJVRD-A02SP63-SS7;VRD_A02_1_GPON_VLAN_106_107_108-ALC;1/1/3/11
EQP0000000075392284;A08G0364;CTO - PAD TELEFONICA;RJVRD_G1A08;RUA VEREADOR JOSE DOMINGOS DE MACEDO VOLTA REDONDA JARDIM AMALIA 27251253 RJ 74;VOLTA REDONDA;-22.516188800;-44.082930200;G0;RJVRD-A08SP46;RJVRD-A08SP46-SS4;VRD_A08_1_GPON_VLAN_121_122_123-ALC;1/1/2/16
EQP0000000075384799;A06G0064;CTO - PAD TELEFONICA;RJVRD_G1A06;RUA DUZENTOS E VINTE E TRES VOLTA REDONDA CONFORTO 27263585 RJ 165;VOLTA REDONDA;-22.523903500;-44.120659400;G0;RJVRD-A06SP8;RJVRD-A06SP8-SS8;VRD_A06_1_GPON_VLAN_115_116_117-ALC;1/1/1/8
EQP0000000075390827;I03G01142;CTO - PAD TEL-B-90/10;RJVRD_G1I03;RUA GENERAL NELSON DE MELLO VOLTA REDONDA SAO GERALDO 27253560 RJ 289;VOLTA REDONDA;-22.515320600;-44.085229800;G0;RJVRD-I03SP143;RJVRD-I03SP143-SS6;VRD_I03_1_GPON_VLAN_234_235_236-HUA;1/1/7/6
EQP0000000075387143;I02G0595;CTO - PAD TEL-B-70/30;RJVRD_G1I02;RUA CAXAMBU VOLTA REDONDA MINERLANDIA 27264760 RJ 313;VOLTA REDONDA;-22.534443600;-44.122096300;G0;RJVRD-I02SP75;RJVRD-I02SP75-SS3;VRD_I02_1_GPON_VLAN_231_232_233-HUA;1/1/4/13
EQP0000000075383408;A02G0013;CTO - PAD TELEFONICA;RJVRD_G1A02;RUA CABO VERDE VOLTA REDONDA RETIRO 27281320 RJ 138;VOLTA REDONDA;-22.496388200;-44.106324600;G0;RJVRD-A02SP2;RJVRD-A02SP2-SS5;VRD_A02_1_GPON_VLAN_106_107_108-ALC;1/1/1/2
EQP0000000075383862;A08G0062;CTO - PAD TELEFONICA;RJVRD_G1A08;RUA M VOLTA REDONDA JARDIM AMALIA 27251177 RJ 80;VOLTA REDONDA;-22.511250800;-44.074441100;G0;RJVRD-A08SP8;RJVRD-A08SP8-SS6;VRD_A08_1_GPON_VLAN_121_122_123-ALC;1/1/1/8
EQP0000000075386125;A08G0225;CTO - PAD TELEFONICA;RJVRD_G1A08;RUA EVARISTO DA VEIGA VOLTA REDONDA JARDIM AMALIA 27250680 RJ 292;VOLTA REDONDA;-22.509930100;-44.074687700;G0;RJVRD-A08SP29;RJVRD-A08SP29-SS1;VRD_A08_1_GPON_VLAN_121_122_123-ALC;1/1/2/6
EQP0000000075386431;A08G0362;CTO - PAD TELEFONICA;RJVRD_G1A08;RUA VEREADOR JOAQUIM RAMOS VOLTA REDONDA JARDIM AMALIA 27251255 RJ 75;VOLTA REDONDA;-22.516008300;-44.081347500;G0;RJVRD-A08SP46;RJVRD-A08SP46-SS2;VRD_A08_1_GPON_VLAN_121_122_123-ALC;1/1/2/16
EQP0000000075386420;A08G0366;CTO - PAD TELEFONICA;RJVRD_G1A08;RUA ITAMAR DE ASSIS PEREIRA VOLTA REDONDA JARDIM AMALIA 27251250 RJ 568;VOLTA REDONDA;-22.516894700;-44.080450100;G0;RJVRD-A08SP46;RJVRD-A08SP46-SS6;VRD_A08_1_GPON_VLAN_121_122_123-ALC;1/1/2/16
EQP0000000075387161;I03G0155;CTO - PAD TEL-B-70/30;RJVRD_G1I03;RUA SETECENTOS E SESSENTA VOLTA REDONDA CASA DE PEDRA 27257270 RJ 132;VOLTA REDONDA;-22.541308600;-44.076796700;G0;RJVRD-I03SP20;RJVRD-I03SP20-SS3;VRD_I03_1_GPON_VLAN_234_235_236-HUA;1/1/1/15
EQP0000000075392488;I03G01068;CTO - PAD TEL-B-80/20;RJVRD_G1I03;RUA GENERAL ANDRADE NEVES VOLTA REDONDA SAO GERALDO 27253550 RJ 574;VOLTA REDONDA;-22.517411800;-44.086455800;G0;RJVRD-I03SP134;RJVRD-I03SP134-SS4;VRD_I03_1_GPON_VLAN_234_235_236-HUA;1/1/6/15
EQP0000000075386477;I02G0425;CTO - PAD TELEFONICA - B;RJVRD_G1I02;AVENIDA EUROPA VOLTA REDONDA DUZENTOS E QUARENTA E NOVE 27265250 RJ 349;VOLTA REDONDA;-22.529425000;-44.127172800;G0;RJVRD-I02SP54;RJVRD-I02SP54-SS1;VRD_I02_1_GPON_VLAN_231_232_233-HUA;1/1/3/8
EQP0000000075391430;A03G0171;CTO - PAD TELEFONICA;RJVRD_G1A03;RUA MIL E QUARENTA E TRES VOLTA REDONDA SANTO AGOSTINHO 27211670 RJ 96;VOLTA REDONDA;-22.483655700;-44.072055900;G0;RJVRD-A03SP22;RJVRD-A03SP22-SS3;VRD_A03_1_GPON_VLAN_109_110_111-ALC;1/1/1/16
EQP0000000075383886;A08G0075;CTO - PAD TELEFONICA;RJVRD_G1A08;RUA DOUTOR ROLANDO DE PAIVA PAULA VOLTA REDONDA JARDIM AMALIA 27251216 RJ SN;VOLTA REDONDA;-22.511336000;-44.072401100;G0;RJVRD-A08SP10;RJVRD-A08SP10-SS3;VRD_A08_1_GPON_VLAN_121_122_123-ALC;1/1/1/10
EQP0000000075387036;I01G0081;CTO - PAD TELEFONICA;RJVRD_G1I01;AVENIDA DEZESSETE DE JULHO VOLTA REDONDA ATERRADO 27213200 RJ 586;VOLTA REDONDA;-22.502755900;-44.090398600;G0;RJVRD-I01SP11;RJVRD-I01SP11-SS1;VRD_I01_1_GPON_VLAN_100_101_102-ALC;1/1/1/11
EQP0000000075383431;A03G0056;CTO - PAD TELEFONICA;RJVRD_G1A03;RUA SEIS-B VOLTA REDONDA SANTO AGOSTINHO 27211352 RJ 604;VOLTA REDONDA;-22.485965600;-44.085376700;G0;RJVRD-A03SP7;RJVRD-A03SP7-SS8;VRD_A03_1_GPON_VLAN_109_110_111-ALC;1/1/1/7
EQP0000000075387991;A07G0339;CTO - PAD TELEFONICA;RJVRD_G1A07;RUA SAO ROQUE VOLTA REDONDA MONTE CASTELO 27253150 RJ 107;VOLTA REDONDA;-22.519328600;-44.090534600;G0;RJVRD-A07SP43;RJVRD-A07SP43-SS3;VRD_A07_1_GPON_VLAN_118_119_120-ALC;1/1/2/14
EQP0000000075386107;A07G0220;CTO - PAD TELEFONICA;RJVRD_G1A07;RUA CENTO E OITO VOLTA REDONDA LARANJAL 27255130 RJ 80;VOLTA REDONDA;-22.518704700;-44.096484200;G0;RJVRD-A07SP28;RJVRD-A07SP28-SS4;VRD_A07_1_GPON_VLAN_118_119_120-ALC;1/1/2/5
EQP0000000075381887;I01G0470;CTO - PAD TELEFONICA;RJVRD_G1I01;RUA PAULO LEOPOLDO MARCAL VOLTA REDONDA ATERRADO 27213280 RJ 183;VOLTA REDONDA;-22.508225800;-44.091122700;G0;RJVRD-I01SP59;RJVRD-I01SP59-SS6;VRD_I01_1_GPON_VLAN_100_101_102-ALC;1/1/3/5
EQP0000000075381580;A01G0328;CTO - PAD TELEFONICA;RJVRD_G1A01;RUA REVERENDO ISRAEL VIEIRA FERREIRA VOLTA REDONDA RETIRO 27277090 RJ 358;VOLTA REDONDA;-22.498778900;-44.124747100;G0;RJVRD-A01SP41;RJVRD-A01SP41-SS8;VRD_A01_1_GPON_VLAN_103_104_105-ALC;1/1/2/13
EQP0000000075381716;I01G0480;CTO - PAD TELEFONICA;RJVRD_G1I01;AVENIDA OSCAR DE ALMEIDA GAMA VOLTA REDONDA ATERRADO 27213260 RJ 159;VOLTA REDONDA;-22.506564900;-44.091254900;G0;RJVRD-I01SP60;RJVRD-I01SP60-SS8;VRD_I01_1_GPON_VLAN_100_101_102-ALC;1/1/3/6
EQP0000000075388107;I02G0469;CTO - PAD TEL-B-85/15;RJVRD_G1I02;RUA OLAVO BILAC VOLTA REDONDA EUCALIPTAL 27263630 RJ 142;VOLTA REDONDA;-22.524377400;-44.117452600;G0;RJVRD-I02SP59;RJVRD-I02SP59-SS5;VRD_I02_1_GPON_VLAN_231_232_233-HUA;1/1/3/13
EQP0000000075391684;A07GP066;TO;RJVRD_G1A07;RUA QUARENTA E UM - C VOLTA REDONDA VILA SANTA CECILIA 27255430 RJ 1455;VOLTA REDONDA;-22.523343500;-44.094671800;GP;RJVRD-A07SP9;RJVRD-A07SP9-SS2;VRD_A07_1_GPON_VLAN_118_119_120-ALC;1/1/1/9
EQP0000000075391442;A03G0181;CTO - PAD TELEFONICA;RJVRD_G1A03;RUA MIL E QUARENTA E TRES VOLTA REDONDA SANTO AGOSTINHO 27211670 RJ 1;VOLTA REDONDA;-22.485290800;-44.074910000;G0;RJVRD-A03SP23;RJVRD-A03SP23-SS5;VRD_A03_1_GPON_VLAN_109_110_111-ALC;1/1/2/1
EQP0000000075388163;A07GF465;CTO - PAD TELEFONICA;RJVRD_G1A07;AVENIDA AMARAL PEIXOTO VOLTA REDONDA SAO JOAO 27253222 RJ 295;VOLTA REDONDA;-22.512842700;-44.092588700;OUTROS;RJVRD-A07SP59;RJVRD-A07SP59-SS1;VRD_A07_1_GPON_VLAN_118_119_120-ALC;1/1/3/7
EQP0000000075382540;I01G0058;CTO - PAD TELEFONICA;RJVRD_G1I01;RUA DESEMBARGADOR CEZAR SALAMONDE VOLTA REDONDA ATERRADO 27213061 RJ 45;VOLTA REDONDA;-22.505070700;-44.091489300;G0;RJVRD-I01SP8;RJVRD-I01SP8-SS2;VRD_I01_1_GPON_VLAN_100_101_102-ALC;1/1/1/8
EQP0000000075387644;A07G0058;CTO - PAD TELEFONICA;RJVRD_G1A07;RUA SESSENTA E DOIS-A VOLTA REDONDA SESSENTA 27256005 RJ 35;VOLTA REDONDA;-22.523808200;-44.092003900;G0;RJVRD-A07SP8;RJVRD-A07SP8-SS2;VRD_A07_1_GPON_VLAN_118_119_120-ALC;1/1/1/8
EQP0000000075383432;A03G0055;CTO - PAD TELEFONICA;RJVRD_G1A03;RUA HERBERT VIANA VOLTA REDONDA SANTO AGOSTINHO 27200000 RJ 36;VOLTA REDONDA;-22.486480700;-44.085588100;G0;RJVRD-A03SP7;RJVRD-A03SP7-SS7;VRD_A03_1_GPON_VLAN_109_110_111-ALC;1/1/1/7
EQP0000000075388009;A08GP322;TO;RJVRD_G1A08;RUA GENERAL ANDRADE NEVES VOLTA REDONDA SAO GERALDO 27253550 RJ 90;VOLTA REDONDA;-22.513404500;-44.087754900;GP;RJVRD-A08SP41;RJVRD-A08SP41-SS2;VRD_A08_1_GPON_VLAN_121_122_123-ALC;1/1/2/11
EQP0000000075387820;A07G0024;CTO - PAD TELEFONICA;RJVRD_G1A07;RUA QUARENTA E CINCO VOLTA REDONDA SESSENTA 27256020 RJ 25;VOLTA REDONDA;-22.524661100;-44.099049400;G0;RJVRD-A07SP3;RJVRD-A07SP3-SS8;VRD_A07_1_GPON_VLAN_118_119_120-ALC;1/1/1/3
EQP0000000075393407;A01G0067;CTO - PAD TELEFONICA;RJVRD_G1A01;RUA DAS LARANJEIRAS VOLTA REDONDA RETIRO 27275215 RJ 129;VOLTA REDONDA;-22.502649400;-44.113711300;G0;RJVRD-A01SP9;RJVRD-A01SP9-SS3;VRD_A01_1_GPON_VLAN_103_104_105-ALC;1/1/1/9
EQP0000000075387531;A08G0451;CTO - PAD TELEFONICA;RJVRD_G1A08;RUA PROFESSOR PINTO FERREIRA VOLTA REDONDA JARDIM AMALIA 27251380 RJ 95;VOLTA REDONDA;-22.513932800;-44.082428500;G0;RJVRD-A08SP57;RJVRD-A08SP57-SS3;VRD_A08_1_GPON_VLAN_121_122_123-ALC;1/1/3/4
EQP0000000075385863;A03G0472;CTO - PAD TELEFONICA;RJVRD_G1A03;RUA VITORIA VOLTA REDONDA SANTO AGOSTINHO 27210415 RJ 139;VOLTA REDONDA;-22.487509500;-44.074643100;G0;RJVRD-A03SP59;RJVRD-A03SP59-SS8;VRD_A03_1_GPON_VLAN_109_110_111-ALC;1/1/3/7
EQP0000000075385391;A02G0448;CTO - PAD TELEFONICA;RJVRD_G1A02;RUA LUIZ LOPES DORNELLES VOLTA REDONDA AERO CLUBE 27283110 RJ 223;VOLTA REDONDA;-22.503317000;-44.081793200;G0;RJVRD-A02SP56;RJVRD-A02SP56-SS8;VRD_A02_1_GPON_VLAN_106_107_108-ALC;1/1/3/4
EQP0000000075383650;A05G0151;CTO - PAD TELEFONICA;RJVRD_G1A05;RUA SAO JORGE VOLTA REDONDA SAO LUCAS 27264130 RJ 77;VOLTA REDONDA;-22.529664100;-44.120381600;G0;RJVRD-A05SP19;RJVRD-A05SP19-SS7;VRD_A05_1_GPON_VLAN_112_113_114-ALC;1/1/1/16
EQP0000000075386798;I02G0419;CTO - PAD TEL-B-70/30;RJVRD_G1I02;RUA MINAS GERAIS VOLTA REDONDA EUCALIPTAL 27264120 RJ 167;VOLTA REDONDA;-22.528694200;-44.123352200;G0;RJVRD-I02SP53;RJVRD-I02SP53-SS3;VRD_I02_1_GPON_VLAN_231_232_233-HUA;1/1/3/7
EQP0000000075391871;A02G0373;CTO - PAD TELEFONICA;RJVRD_G1A02;AVENIDA DAS MAGNOLIAS VOLTA REDONDA VILA MURY 27281630 RJ 405;VOLTA REDONDA;-22.496184700;-44.099391200;G0;RJVRD-A02SP47;RJVRD-A02SP47-SS5;VRD_A02_1_GPON_VLAN_106_107_108-ALC;1/1/3/2
EQP0000000075383647;A02G0354;CTO - PAD TELEFONICA;RJVRD_G1A02;RUA OLEGARIO PONCIANO WERNER VOLTA REDONDA VILA MURY 27283590 RJ 10;VOLTA REDONDA;-22.498366100;-44.097939500;G0;RJVRD-A02SP45;RJVRD-A02SP45-SS2;VRD_A02_1_GPON_VLAN_106_107_108-ALC;1/1/2/16
EQP0000000075387822;A07G0023;CTO - PAD TELEFONICA;RJVRD_G1A07;RUA SESSENTA E DOIS VOLTA REDONDA SESSENTA 27260020 RJ 265;VOLTA REDONDA;-22.525206100;-44.099684200;G0;RJVRD-A07SP3;RJVRD-A07SP3-SS7;VRD_A07_1_GPON_VLAN_118_119_120-ALC;1/1/1/3
EQP0000000075388327;A08GP294;TO;RJVRD_G1A08;RUA PAULO MIRANDA DA FONSECA VOLTA REDONDA SAO GERALDO 27253630 RJ 27;VOLTA REDONDA;-22.513997000;-44.088100700;GP;RJVRD-A08SP37;RJVRD-A08SP37-SS6;VRD_A08_1_GPON_VLAN_121_122_123-ALC;1/1/2/7
EQP0000000075383937;A02G0367;CTO - PAD TELEFONICA;RJVRD_G1A02;RUA OLEGARIO PONCIANO WERNER VOLTA REDONDA VILA MURY 27283590 RJ 40;VOLTA REDONDA;-22.497907700;-44.097927700;G0;RJVRD-A02SP46;RJVRD-A02SP46-SS7;VRD_A02_1_GPON_VLAN_106_107_108-ALC;1/1/3/1
EQP0000000075393579;I03G0814;CTO - PAD TEL-B-90/10;RJVRD_G1I03;RUA CAPITAO BENEDITO LOPES BRAGANCA VOLTA REDONDA SAO GERALDO 27253510 RJ 960;VOLTA REDONDA;-22.519867000;-44.083792000;G0;RJVRD-I03SP102;RJVRD-I03SP102-SS6;VRD_I03_1_GPON_VLAN_234_235_236-HUA;1/1/5/6
EQP0000000075392415;A09G0045;CTO - PAD TELEFONICA;RJVRD_G1A09;AVENIDA ALIMO ANTONIO FRANCISCO VOLTA REDONDA JARDIM BELVEDERE 27258490 RJ 175;VOLTA REDONDA;-22.531954300;-44.066632700;G0;RJVRD-A09SP6;RJVRD-A09SP6-SS5;VRD_A09_1_GPON_VLAN_124_125_126-ALC;1/1/1/6
EQP0000000075392277;A08G0212;CTO - PAD TELEFONICA;RJVRD_G1A08;RUA MARQUES DE POMBAL VOLTA REDONDA JARDIM AMALIA 27250810 RJ 293;VOLTA REDONDA;-22.507946500;-44.076182400;G0;RJVRD-A08SP27;RJVRD-A08SP27-SS4;VRD_A08_1_GPON_VLAN_121_122_123-ALC;1/1/2/4
EQP0000000075382485;I04G0510;CTO - PAD TEL-B-90/10;RJVRD_G1I04;RUA MARILIA VOLTA REDONDA SANTO AGOSTINHO 27210440 RJ 331;VOLTA REDONDA;-22.490781100;-44.071218000;G0;RJVRD-I04SP64;RJVRD-I04SP64-SS6;VRD_I04_1_GPON_VLAN_127_128_129-ALC;1/1/4/2
EQP0000000075387422;I02G0310;CTO - PAD TEL-B-90/10;RJVRD_G1I02;RUA BUCARESTE VOLTA REDONDA PONTE ALTA 27267500 RJ 293;VOLTA REDONDA;-22.531283500;-44.133115000;G0;RJVRD-I02SP39;RJVRD-I02SP39-SS6;VRD_I02_1_GPON_VLAN_231_232_233-HUA;1/1/3/0
EQP0000000075388479;I03G01112;CTO - PAD TEL-B-90/10;RJVRD_G1I03;RUA CAPITAO BENEDITO LOPES BRAGANCA VOLTA REDONDA SAO GERALDO 27253510 RJ 13;VOLTA REDONDA;-22.511808000;-44.086371200;G0;RJVRD-I03SP139;RJVRD-I03SP139-SS8;VRD_I03_1_GPON_VLAN_234_235_236-HUA;1/1/7/4
EQP0000000075388476;I03G0825;CTO - PAD TELEFONICA - B;RJVRD_G1I03;RODOVIA BR 393 - AVENIDA GETULIO VARGAS VOLTA REDONDA SAO JOAO 27253410 RJ 253;VOLTA REDONDA;-22.511576500;-44.087468200;G0;RJVRD-I03SP104;RJVRD-I03SP104-SS1;VRD_I03_1_GPON_VLAN_234_235_236-HUA;1/1/5/8
EQP0000000197054483;A01G0531;CTO SPLITTER 1 8;RJVRD_G1A01;RUA FREI HENRIQUE SOARES VOLTA REDONDA JARDIM CIDADE DO ACO 27275420 RJ 31;VOLTA REDONDA;-22.504223900;-44.119392000;G0;RJVRD-A01SP67;RJVRD-A01SP67-SS3;VRD_A01_1_GPON_VLAN_103_104_105-ALC;1/1/4/7
EQP0000000075391694;A02G0487;CTO - PAD TELEFONICA;RJVRD_G1A02;RUA SAO VICENTE DE PAULA VOLTA REDONDA NITEROI 27283800 RJ 153;VOLTA REDONDA;-22.498282800;-44.092818400;G0;RJVRD-A02SP61;RJVRD-A02SP61-SS7;VRD_A02_1_GPON_VLAN_106_107_108-ALC;1/1/3/9
EQP0000000075391714;A09G0459;CTO - PAD TELEFONICA;RJVRD_G1A09;RUA SEISCENTOS E CINQUENTA E NOVE VOLTA REDONDA SIDEROPOLIS 27257110 RJ 19;VOLTA REDONDA;-22.538669900;-44.087165500;G0;RJVRD-A09SP58;RJVRD-A09SP58-SS3;VRD_A09_1_GPON_VLAN_124_125_126-ALC;1/1/3/4
EQP0000000075385056;A03G0512;CTO - PAD TELEFONICA;RJVRD_G1A03;RUA MIL E CINQUENTA E OITO VOLTA REDONDA SANTO AGOSTINHO 27211640 RJ 89;VOLTA REDONDA;-22.487262600;-44.077457700;G0;RJVRD-A03SP64;RJVRD-A03SP64-SS8;VRD_A03_1_GPON_VLAN_109_110_111-ALC;1/1/3/12
EQP0000000075386648;I03G0480;CTO - PAD TEL-B-90/10;RJVRD_G1I03;RUA TREZENTOS E VINTE E QUATRO VOLTA REDONDA MONTE CASTELO 27255610 RJ 19;VOLTA REDONDA;-22.522951200;-44.093604000;G0;RJVRD-I03SP60;RJVRD-I03SP60-SS8;VRD_I03_1_GPON_VLAN_234_235_236-HUA;1/1/3/5
EQP0000000075391779;I01GP154;TO;RJVRD_G1I01;RUA QUINHENTOS E SETENTA E QUATRO VOLTA REDONDA NOSSA SENHORA DAS GRACAS 27215430 RJ 136;VOLTA REDONDA;-22.501209100;-44.094223100;GP;RJVRD-I01SP20;RJVRD-I01SP20-SS2;VRD_I01_1_GPON_VLAN_100_101_102-ALC;1/1/1/13
EQP0000000075391707;A05G0230;CTO - PAD TELEFONICA;RJVRD_G1A05;AVENIDA FLORESTAL VOLTA REDONDA DUZENTOS E QUARENTA E NOVE 27265290 RJ 241;VOLTA REDONDA;-22.529161400;-44.126417400;G0;RJVRD-A05SP29;RJVRD-A05SP29-SS6;VRD_A05_1_GPON_VLAN_112_113_114-ALC;1/1/2/10
EQP0000000075386133;A07G0197;CTO - PAD TELEFONICA;RJVRD_G1A07;RUA CENTO E CINQUENTA E NOVE VOLTA REDONDA LARANJAL 27255030 RJ 198;VOLTA REDONDA;-22.516606200;-44.098404600;G0;RJVRD-A07SP25;RJVRD-A07SP25-SS5;VRD_A07_1_GPON_VLAN_118_119_120-ALC;1/1/2/2
EQP0000000075383578;A02G0032;CTO - PAD TELEFONICA;RJVRD_G1A02;AVENIDA SAVIO COTA DE ALMEIDA GAMA VOLTA REDONDA NITEROI 27283526 RJ 1576;VOLTA REDONDA;-22.496778500;-44.104770700;G0;RJVRD-A02SP4;RJVRD-A02SP4-SS8;VRD_A02_1_GPON_VLAN_106_107_108-ALC;1/1/1/4
EQP0000000075384218;A02G0185;CTO - PAD TELEFONICA;RJVRD_G1A02;AVENIDA NOSSA SENHORA DO AMPARO VOLTA REDONDA VOLDAC 27285412 RJ 850;VOLTA REDONDA;-22.492089600;-44.092236200;G0;RJVRD-A02SP24;RJVRD-A02SP24-SS1;VRD_A02_1_GPON_VLAN_106_107_108-ALC;1/1/2/1
EQP0000000075391561;A03G0210;CTO - PAD TELEFONICA;RJVRD_G1A03;RUA MIL E TRINTA E NOVE A VOLTA REDONDA VOLTA GRANDE 27211760 RJ 20;VOLTA REDONDA;-22.485734100;-44.075634000;G0;RJVRD-A03SP27;RJVRD-A03SP27-SS2;VRD_A03_1_GPON_VLAN_109_110_111-ALC;1/1/2/5
EQP0000000075384160;A05G0333;CTO - PAD TELEFONICA;RJVRD_G1A05;RUA JOSE MIGUEL VOLTA REDONDA PONTE ALTA 27267450 RJ 133;VOLTA REDONDA;-22.534706600;-44.132524600;G0;RJVRD-A05SP42;RJVRD-A05SP42-SS5;VRD_A05_1_GPON_VLAN_112_113_114-ALC;1/1/3/5
EQP0000000075387475;I03G0225;CTO - PAD TELEFONICA - B;RJVRD_G1I03;RUA LOURDES CAPOBIANGO VOLTA REDONDA JARDIM BELVEDERE 27258070 RJ 107;VOLTA REDONDA;-22.528781800;-44.067821300;G0;RJVRD-I03SP29;RJVRD-I03SP29-SS1;VRD_I03_1_GPON_VLAN_234_235_236-HUA;1/1/2/8
EQP0000000075391216;I03G0997;CTO - PAD TEL-B-85/15;RJVRD_G1I03;RUA GUSTAVO LIRA VOLTA REDONDA SAO JOAO 27253280 RJ 378;VOLTA REDONDA;-22.513437600;-44.091683000;G0;RJVRD-I03SP125;RJVRD-I03SP125-SS5;VRD_I03_1_GPON_VLAN_234_235_236-HUA;1/1/6/6
EQP0000000075381398;A01G0354;CTO - PAD TELEFONICA;RJVRD_G1A01;AVENIDA MANOEL GARANI VOLTA REDONDA RETIRO 27277150 RJ 135;VOLTA REDONDA;-22.498782200;-44.121156400;G0;RJVRD-A01SP45;RJVRD-A01SP45-SS2;VRD_A01_1_GPON_VLAN_103_104_105-ALC;1/1/3/1
EQP0000000075386034;I03G0712;CTO - PAD TEL-B-90/10;RJVRD_G1I03;RUA VEREADOR BENEDITO FONSECA VOLTA REDONDA JARDIM AMALIA 27251193 RJ 333;VOLTA REDONDA;-22.512038800;-44.072357000;G0;RJVRD-I03SP89;RJVRD-I03SP89-SS8;VRD_I03_1_GPON_VLAN_234_235_236-HUA;1/1/4/9
EQP0000000075388181;A07GP463;TO;RJVRD_G1A07;AVENIDA AMARAL PEIXOTO VOLTA REDONDA SAO JOAO 27253222 RJ 177;VOLTA REDONDA;-22.512826200;-44.093674800;GP;RJVRD-A07SP58;RJVRD-A07SP58-SS7;VRD_A07_1_GPON_VLAN_118_119_120-ALC;1/1/3/6
EQP0000000075387646;A07G0057;CTO - PAD TELEFONICA;RJVRD_G1A07;RUA TREZENTOS E VINTE VOLTA REDONDA SESSENTA 27256105 RJ 36;VOLTA REDONDA;-22.524020600;-44.091775800;G0;RJVRD-A07SP8;RJVRD-A07SP8-SS1;VRD_A07_1_GPON_VLAN_118_119_120-ALC;1/1/1/8
EQP0000000075387136;I03G0120;CTO - PAD TEL-B-90/10;RJVRD_G1I03;RUA DEZENOVE VOLTA REDONDA JARDIM VILA RICA   TIRADENTES 27259220 RJ 193;VOLTA REDONDA;-22.542978300;-44.064682900;G0;RJVRD-I03SP15;RJVRD-I03SP15-SS8;VRD_I03_1_GPON_VLAN_234_235_236-HUA;1/1/1/10
EQP0000000075386940;I03G0395;CTO - PAD TEL-B-70/30;RJVRD_G1I03;RUA CINQUENTA E OITO VOLTA REDONDA VILA SANTA CECILIA 27261080 RJ 73;VOLTA REDONDA;-22.524579700;-44.103495700;G0;RJVRD-I03SP50;RJVRD-I03SP50-SS3;VRD_I03_1_GPON_VLAN_234_235_236-HUA;1/1/3/1
EQP0000000075384325;A05G0294;CTO - PAD TELEFONICA;RJVRD_G1A05;RUA BUCARESTE VOLTA REDONDA PONTE ALTA 27267500 RJ 370;VOLTA REDONDA;-22.531193400;-44.133562700;G0;RJVRD-A05SP37;RJVRD-A05SP37-SS6;VRD_A05_1_GPON_VLAN_112_113_114-ALC;1/1/2/16
EQP0000000075386613;I02G0438;CTO - PAD TEL-B-90/10;RJVRD_G1I02;RUA FERNANDO TEDESCO VOLTA REDONDA SAO LUCAS 27265280 RJ 113;VOLTA REDONDA;-22.526370300;-44.126116900;G0;RJVRD-I02SP55;RJVRD-I02SP55-SS6;VRD_I02_1_GPON_VLAN_231_232_233-HUA;1/1/3/9
EQP0000000075382844;I01G0068;CTO - PAD TELEFONICA;RJVRD_G1I01;RUA TENENTE-CORONEL MISAEL MENDONCA VOLTA REDONDA ATERRADO 27215600 RJ 47;VOLTA REDONDA;-22.502450300;-44.091726300;G0;RJVRD-I01SP9;RJVRD-I01SP9-SS4;VRD_I01_1_GPON_VLAN_100_101_102-ALC;1/1/1/9
EQP0000000075387161;I03G0155;CTO - PAD TEL-B-70/30;RJVRD_G1I03;RUA SETECENTOS E SESSENTA VOLTA REDONDA CASA DE PEDRA 27257270 RJ 132;VOLTA REDONDA;-22.541308600;-44.076796700;G0;RJVRD-I03SP20;RJVRD-I03SP20-SS3;VRD_I03_1_GPON_VLAN_234_235_236-HUA;1/1/1/15
EQP0000000075392264;I03G0517;CTO - PAD TEL-B-85/15;RJVRD_G1I03;RUA TREZENTOS E TRINTA E OITO VOLTA REDONDA MONTE CASTELO 27253200 RJ 185;VOLTA REDONDA;-22.520543900;-44.092497100;G0;RJVRD-I03SP65;RJVRD-I03SP65-SS5;VRD_I03_1_GPON_VLAN_234_235_236-HUA;1/1/3/7
EQP0000000079571051;A06GP319;MINI CDOE 1:2 + 1:8 PRECON SELADA 60/40;RJVRD_G1A06;LARGO NOVE DE ABRIL VOLTA REDONDA VILA SANTA CECILIA 27260180 RJ 27;VOLTA REDONDA;-22.517278800;-44.106783800;GP;RJVRD-A06SP40;RJVRD-A06SP40-SS7;VRD_A06_1_GPON_VLAN_115_116_117-ALC;1/1/2/9
EQP0000000075385513;A02G0334;CTO - PAD TELEFONICA;RJVRD_G1A02;AVENIDA PASTOR CESAR DACORSO FILHO VOLTA REDONDA VILA MURY 27281670 RJ 411;VOLTA REDONDA;-22.499003800;-44.103252100;G0;RJVRD-A02SP42;RJVRD-A02SP42-SS6;VRD_A02_1_GPON_VLAN_106_107_108-ALC;1/1/2/13
EQP0000000075386258;A07G0194;CTO - PAD TELEFONICA;RJVRD_G1A07;AVENIDA DOUTOR NELSON DOS SANTOS GONCALVES VOLTA REDONDA LARANJAL 27255035 RJ 364;VOLTA REDONDA;-22.514323300;-44.098526700;G0;RJVRD-A07SP25;RJVRD-A07SP25-SS2;VRD_A07_1_GPON_VLAN_118_119_120-ALC;1/1/2/2
EQP0000000075393124;A01G0367;CTO - PAD TELEFONICA;RJVRD_G1A01;RUA GRANDES LOJAS VOLTA REDONDA RETIRO 27275680 RJ 73;VOLTA REDONDA;-22.501708900;-44.120310400;G0;RJVRD-A01SP46;RJVRD-A01SP46-SS7;VRD_A01_1_GPON_VLAN_103_104_105-ALC;1/1/3/2
EQP0000000075393412;I01G0066;CTO - PAD TELEFONICA;RJVRD_G1I01;RUA RUY BARBOSA DE OLIVEIRA VOLTA REDONDA ATERRADO 27215510 RJ 63;VOLTA REDONDA;-22.503151400;-44.091957700;G0;RJVRD-I01SP9;RJVRD-I01SP9-SS2;VRD_I01_1_GPON_VLAN_100_101_102-ALC;1/1/1/9
EQP0000000075385748;A06G0317;CTO - PAD TELEFONICA;RJVRD_G1A06;RUA DEZESSEIS VOLTA REDONDA VILA SANTA CECILIA 27260110 RJ 101;VOLTA REDONDA;-22.518690800;-44.107689500;G0;RJVRD-A06SP40;RJVRD-A06SP40-SS5;VRD_A06_1_GPON_VLAN_115_116_117-ALC;1/1/2/9
EQP0000000075386042;I03G0708;CTO - PAD TEL-B-80/20;RJVRD_G1I03;RUA VEREADOR FERNANDO MARIO NETO VOLTA REDONDA JARDIM AMALIA 27251197 RJ SN;VOLTA REDONDA;-22.514911100;-44.071279600;G0;RJVRD-I03SP89;RJVRD-I03SP89-SS4;VRD_I03_1_GPON_VLAN_234_235_236-HUA;1/1/4/9
EQP0000000075383052;I01G0324;CTO - PAD TELEFONICA;RJVRD_G1I01;AVENIDA PAULO DE FRONTIN VOLTA REDONDA ATERRADO 27215580 RJ 191;VOLTA REDONDA;-22.510232600;-44.094201600;G0;RJVRD-I01SP41;RJVRD-I01SP41-SS4;VRD_I01_1_GPON_VLAN_100_101_102-ALC;1/1/2/12
EQP0000000075387059;A08G0300;CTO - PAD TELEFONICA;RJVRD_G1A08;RUA NOSSA SENHORA DAS GRACAS VOLTA REDONDA SAO GERALDO 27253610 RJ 293;VOLTA REDONDA;-22.515708900;-44.088294200;G0;RJVRD-A08SP38;RJVRD-A08SP38-SS4;VRD_A08_1_GPON_VLAN_121_122_123-ALC;1/1/2/8
EQP0000000075387041;A09G0043;CTO - PAD TELEFONICA;RJVRD_G1A09;RUA C VOLTA REDONDA JARDIM BELVEDERE 27258505 RJ 82;VOLTA REDONDA;-22.532620600;-44.066000500;G0;RJVRD-A09SP6;RJVRD-A09SP6-SS3;VRD_A09_1_GPON_VLAN_124_125_126-ALC;1/1/1/6
EQP0000000075390997;I03G01077;CTO - PAD TEL-B-85/15;RJVRD_G1I03;RUA GENERAL SAMPAIO VOLTA REDONDA SAO GERALDO 27253570 RJ 259;VOLTA REDONDA;-22.515255000;-44.085936600;G0;RJVRD-I03SP135;RJVRD-I03SP135-SS5;VRD_I03_1_GPON_VLAN_234_235_236-HUA;1/1/7/0
EQP0000000075384570;A03G0182;CTO - PAD TELEFONICA;RJVRD_G1A03;RUA MIL E QUARENTA E UM VOLTA REDONDA SANTO AGOSTINHO 27211680 RJ 85;VOLTA REDONDA;-22.482742700;-44.076708600;G0;RJVRD-A03SP23;RJVRD-A03SP23-SS6;VRD_A03_1_GPON_VLAN_109_110_111-ALC;1/1/2/1
EQP0000000075384409;A02G0515;CTO - PAD TELEFONICA;RJVRD_G1A02;RUA BARAO DO BOM RETIRO VOLTA REDONDA RETIRO 27283420 RJ 125;VOLTA REDONDA;-22.494429900;-44.094499400;G0;RJVRD-A02SP65;RJVRD-A02SP65-SS3;VRD_A02_1_GPON_VLAN_106_107_108-ALC;1/1/3/13
EQP0000000075388107;I02G0469;CTO - PAD TEL-B-85/15;RJVRD_G1I02;RUA OLAVO BILAC VOLTA REDONDA EUCALIPTAL 27263630 RJ 142;VOLTA REDONDA;-22.524377400;-44.117452600;G0;RJVRD-I02SP59;RJVRD-I02SP59-SS5;VRD_I02_1_GPON_VLAN_231_232_233-HUA;1/1/3/13
EQP0000000075391655;A03GP027;TO;RJVRD_G1A03;RUA B VOLTA REDONDA PARQUE DAS ILHAS 27211010 RJ 256;VOLTA REDONDA;-22.490372200;-44.084054500;GP;RJVRD-A03SP4;RJVRD-A03SP4-SS3;VRD_A03_1_GPON_VLAN_109_110_111-ALC;1/1/1/4
EQP0000000075384688;A09G0455;CTO - PAD TELEFONICA;RJVRD_G1A09;RUA SEISCENTOS E SESSENTA E CINCO VOLTA REDONDA SIDEROPOLIS 27257140 RJ 55;VOLTA REDONDA;-22.539882500;-44.086488400;G0;RJVRD-A09SP57;RJVRD-A09SP57-SS7;VRD_A09_1_GPON_VLAN_124_125_126-ALC;1/1/3/3
EQP0000000075387852;A08GP475;TO;RJVRD_G1A08;RUA SENADOR PINHEIRO MACHADO VOLTA REDONDA JARDIM AMALIA 27251410 RJ 80;VOLTA REDONDA;-22.510512000;-44.081495400;GP;RJVRD-A08SP60;RJVRD-A08SP60-SS3;VRD_A08_1_GPON_VLAN_121_122_123-ALC;1/1/3/7
EQP0000000075384435;A02G0488;CTO - PAD TELEFONICA;RJVRD_G1A02;RUA SAO VICENTE DE PAULA VOLTA REDONDA NITEROI 27283800 RJ 81;VOLTA REDONDA;-22.498397500;-44.092101300;G0;RJVRD-A02SP61;RJVRD-A02SP61-SS8;VRD_A02_1_GPON_VLAN_106_107_108-ALC;1/1/3/9
EQP0000000075387047;A09G0041;CTO - PAD TELEFONICA;RJVRD_G1A09;RUA C VOLTA REDONDA JARDIM BELVEDERE 27258505 RJ 242;VOLTA REDONDA;-22.532162400;-44.064531100;G0;RJVRD-A09SP6;RJVRD-A09SP6-SS1;VRD_A09_1_GPON_VLAN_124_125_126-ALC;1/1/1/6
EQP0000000075387519;A07G0060;CTO - PAD TELEFONICA;RJVRD_G1A07;RUA TREZENTOS E TREZE VOLTA REDONDA SESSENTA 27256130 RJ 3;VOLTA REDONDA;-22.525497900;-44.092430400;G0;RJVRD-A07SP8;RJVRD-A07SP8-SS4;VRD_A07_1_GPON_VLAN_118_119_120-ALC;1/1/1/8
EQP0000000075384008;A05G0345;CTO - PAD TELEFONICA;RJVRD_G1A05;RUA VEREADOR ALDILIO CARVALHO FRANCA VOLTA REDONDA PONTE ALTA 27267370 RJ 391;VOLTA REDONDA;-22.534884500;-44.133576100;G0;RJVRD-A05SP44;RJVRD-A05SP44-SS1;VRD_A05_1_GPON_VLAN_112_113_114-ALC;1/1/3/7
EQP0000000075392850;I02G0602;CTO - PAD TEL-B-60/40;RJVRD_G1I02;RUA VEREADOR JOAO ALVARENGA VOLTA REDONDA DUZENTOS E QUARENTA E NOVE 27267060 RJ 355;VOLTA REDONDA;-22.531630500;-44.128051200;G0;RJVRD-I02SP76;RJVRD-I02SP76-SS2;VRD_I02_1_GPON_VLAN_231_232_233-HUA;1/1/4/14
EQP0000000075383741;A02G0231;CTO - PAD TELEFONICA;RJVRD_G1A02;RUA SCIPIAO VOLTA REDONDA RETIRO 27283050 RJ 105;VOLTA REDONDA;-22.493238900;-44.098243700;G0;RJVRD-A02SP29;RJVRD-A02SP29-SS7;VRD_A02_1_GPON_VLAN_106_107_108-ALC;1/1/2/6
EQP0000000075387333;I01G0220;CTO - PAD TELEFONICA;RJVRD_G1I01;RUA SEGUNDO-SARGENTO JAIME PANTALEAO DE MORAIS VOLTA REDONDA ATERRADO 27215561 RJ 127;VOLTA REDONDA;-22.503334900;-44.092822600;G0;RJVRD-I01SP28;RJVRD-I01SP28-SS4;VRD_I01_1_GPON_VLAN_100_101_102-ALC;1/1/2/5
EQP0000000075393580;I03G01144;CTO - PAD TEL-B-90/10;RJVRD_G1I03;RUA GENERAL NELSON DE MELLO VOLTA REDONDA SAO GERALDO 27253560 RJ 12;VOLTA REDONDA;-22.513090400;-44.086652700;G0;RJVRD-I03SP143;RJVRD-I03SP143-SS8;VRD_I03_1_GPON_VLAN_234_235_236-HUA;1/1/7/6
EQP0000000075393317;I03G0142;CTO - PAD TEL-B-90/10;RJVRD_G1I03;RUA OITOCENTOS E VINTE E SETE VOLTA REDONDA CASA DE PEDRA 27258315 RJ 41;VOLTA REDONDA;-22.538740700;-44.074488300;G0;RJVRD-I03SP18;RJVRD-I03SP18-SS6;VRD_I03_1_GPON_VLAN_234_235_236-HUA;1/1/1/13
EQP0000000075391575;A03G0226;CTO - PAD TELEFONICA;RJVRD_G1A03;RUA SARGENTO PAULO MOREIRA VOLTA REDONDA SANTO AGOSTINHO 27211150 RJ 23;VOLTA REDONDA;-22.486886200;-44.079572500;G0;RJVRD-A03SP29;RJVRD-A03SP29-SS2;VRD_A03_1_GPON_VLAN_109_110_111-ALC;1/1/2/7
EQP0000000075386115;A08G0217;CTO - PAD TELEFONICA;RJVRD_G1A08;RUA CRISTOVAO COLOMBO VOLTA REDONDA JARDIM AMALIA 27251025 RJ 362;VOLTA REDONDA;-22.508714400;-44.077429300;G0;RJVRD-A08SP28;RJVRD-A08SP28-SS1;VRD_A08_1_GPON_VLAN_121_122_123-ALC;1/1/2/5
EQP0000000075392234;I03G0117;CTO - PAD TEL-B-85/15;RJVRD_G1I03;RUA VINTE E UM VOLTA REDONDA JARDIM VILA RICA   TIRADENTES 27259230 RJ 220;VOLTA REDONDA;-22.543348500;-44.063902500;G0;RJVRD-I03SP15;RJVRD-I03SP15-SS5;VRD_I03_1_GPON_VLAN_234_235_236-HUA;1/1/1/10
EQP0000000075383569;A03G0074;CTO - PAD TELEFONICA;RJVRD_G1A03;RUA BARTOLOMEU BUENO DA SILVEIRA VOLTA REDONDA SANTO AGOSTINHO 27211290 RJ 47;VOLTA REDONDA;-22.486601000;-44.083020900;G0;RJVRD-A03SP10;RJVRD-A03SP10-SS2;VRD_A03_1_GPON_VLAN_109_110_111-ALC;1/1/1/10
EQP0000000075390633;I03G0790;CTO - PAD TEL-B-90/10;RJVRD_G1I03;RUA GUIMARAES PASSOS VOLTA REDONDA JARDIM AMALIA 27251270 RJ 120;VOLTA REDONDA;-22.512742200;-44.082982100;G0;RJVRD-I03SP99;RJVRD-I03SP99-SS6;VRD_I03_1_GPON_VLAN_234_235_236-HUA;1/1/5/3
EQP0000000075392297;A07G0433;CTO - PAD TELEFONICA;RJVRD_G1A07;RUA EDUARDO JUNQUEIRA VOLTA REDONDA SAO JOAO 27253400 RJ 26;VOLTA REDONDA;-22.511909200;-44.088246300;G0;RJVRD-A07SP55;RJVRD-A07SP55-SS1;VRD_A07_1_GPON_VLAN_118_119_120-ALC;1/1/3/3
EQP0000000075382842;I01G0075;CTO - PAD TELEFONICA;RJVRD_G1I01;AVENIDA OSCAR DE ALMEIDA GAMA VOLTA REDONDA ATERRADO 27213260 RJ 535;VOLTA REDONDA;-22.503514800;-44.090072000;G0;RJVRD-I01SP10;RJVRD-I01SP10-SS3;VRD_I01_1_GPON_VLAN_100_101_102-ALC;1/1/1/10
EQP0000000075393122;A01G0005;CTO - PAD TELEFONICA;RJVRD_G1A01;RUA JOSE ALVES PEREIRA VOLTA REDONDA VILA MURY 27281680 RJ 87;VOLTA REDONDA;-22.501506700;-44.105438600;G0;RJVRD-A01SP1;RJVRD-A01SP1-SS5;VRD_A01_1_GPON_VLAN_103_104_105-ALC;1/1/1/1
EQP0000000075388064;I03G0647;CTO - PAD TEL-B-90/10;RJVRD_G1I03;RUA EVARISTO DA VEIGA VOLTA REDONDA JARDIM AMALIA 27250680 RJ 284;VOLTA REDONDA;-22.509936600;-44.074946600;G0;RJVRD-I03SP81;RJVRD-I03SP81-SS7;VRD_I03_1_GPON_VLAN_234_235_236-HUA;1/1/4/1
EQP0000000075383670;A05G0166;CTO - PAD TELEFONICA;RJVRD_G1A05;RUA MINAS GERAIS VOLTA REDONDA EUCALIPTAL 27264120 RJ 176;VOLTA REDONDA;-22.528571300;-44.123309500;G0;RJVRD-A05SP21;RJVRD-A05SP21-SS6;VRD_A05_1_GPON_VLAN_112_113_114-ALC;1/1/2/2
EQP0000000075388653;I03GP796;TO;RJVRD_G1I03;RUA DONA VICENTINA GOULART VOLTA REDONDA JARDIM AMALIA 27251430 RJ 168;VOLTA REDONDA;-22.511617300;-44.083553500;GP;RJVRD-I03SP100;RJVRD-I03SP100-SS4;VRD_I03_1_GPON_VLAN_234_235_236-HUA;1/1/5/4
EQP0000000075381134;A01G0157;CTO - PAD TELEFONICA;RJVRD_G1A01;AVENIDA COIMBRA VOLTA REDONDA RETIRO 27281335 RJ 548;VOLTA REDONDA;-22.499175600;-44.109680400;G0;RJVRD-A01SP20;RJVRD-A01SP20-SS5;VRD_A01_1_GPON_VLAN_103_104_105-ALC;1/1/1/14
EQP0000000075384529;A02G0168;CTO - PAD TELEFONICA;RJVRD_G1A02;RUA SETE VOLTA REDONDA SAM REMO 27285280 RJ 446;VOLTA REDONDA;-22.496630100;-44.081146600;G0;RJVRD-A02SP21;RJVRD-A02SP21-SS8;VRD_A02_1_GPON_VLAN_106_107_108-ALC;1/1/1/14
EQP0000000075385753;A06G0299;CTO - PAD TELEFONICA;RJVRD_G1A06;RUA VINTE E UM VOLTA REDONDA VILA SANTA CECILIA 27260280 RJ 48;VOLTA REDONDA;-22.520081900;-44.107783400;G0;RJVRD-A06SP38;RJVRD-A06SP38-SS3;VRD_A06_1_GPON_VLAN_115_116_117-ALC;1/1/2/7
EQP0000000075382318;I04G0462;CTO - PAD TELEFONICA;RJVRD_G1I04;RUA HAITI VOLTA REDONDA VILA AMERICANA 27212190 RJ 60;VOLTA REDONDA;-22.496453200;-44.073587900;G0;RJVRD-I04SP58;RJVRD-I04SP58-SS6;VRD_I04_1_GPON_VLAN_127_128_129-ALC;1/1/3/12
EQP0000000075388070;I03G0644;CTO - PAD TEL-B-80/20;RJVRD_G1I03;RUA RAIMUNDO CORREA VOLTA REDONDA JARDIM AMALIA 27250815 RJ 240;VOLTA REDONDA;-22.507630400;-44.076754000;G0;RJVRD-I03SP81;RJVRD-I03SP81-SS4;VRD_I03_1_GPON_VLAN_234_235_236-HUA;1/1/4/1
EQP0000000075384050;A02G0212;CTO - PAD TELEFONICA;RJVRD_G1A02;RUA MARGARIDA BARREIRA CRAVO VOLTA REDONDA VOLDAC 27285130 RJ 167;VOLTA REDONDA;-22.492076000;-44.093003600;G0;RJVRD-A02SP27;RJVRD-A02SP27-SS4;VRD_A02_1_GPON_VLAN_106_107_108-ALC;1/1/2/4
EQP0000000079575061;A06GP330;MINI CDOE 1:2 + 1:8 PRECON SELADA 60/40;RJVRD_G1A06;LARGO NOVE DE ABRIL VOLTA REDONDA VILA SANTA CECILIA 27260180 RJ 26;VOLTA REDONDA;-22.517167500;-44.106469900;GP;RJVRD-A06SP42;RJVRD-A06SP42-SS2;VRD_A06_1_GPON_VLAN_115_116_117-ALC;1/1/2/11
EQP0000000075383488;A03G0440;CTO - PAD TELEFONICA;RJVRD_G1A03;RUA MIL E TRINTA E QUATRO VOLTA REDONDA SANTO AGOSTINHO 27210220 RJ 8;VOLTA REDONDA;-22.487116500;-44.071734300;G0;RJVRD-A03SP55;RJVRD-A03SP55-SS8;VRD_A03_1_GPON_VLAN_109_110_111-ALC;1/1/3/3
EQP0000000075393313;I03G0472;CTO - PAD TEL-B-90/10;RJVRD_G1I03;RUA TREZENTOS E VINTE E SETE VOLTA REDONDA MONTE CASTELO 27255630 RJ 10;VOLTA REDONDA;-22.523135000;-44.092633000;G0;RJVRD-I03SP59;RJVRD-I03SP59-SS8;VRD_I03_1_GPON_VLAN_234_235_236-HUA;1/1/3/4
EQP0000000075386479;I03G0519;CTO - PAD TEL-B-90/10;RJVRD_G1I03;RUA DOUTOR PAULO MONTEIRO MENDES VOLTA REDONDA MONTE CASTELO 27253050 RJ 246;VOLTA REDONDA;-22.520223500;-44.092047100;G0;RJVRD-I03SP65;RJVRD-I03SP65-SS7;VRD_I03_1_GPON_VLAN_234_235_236-HUA;1/1/3/7
EQP0000000075383906;A03G0080;CTO - PAD TELEFONICA;RJVRD_G1A03;RUA ARGEMIRO CRUZ VOLTA REDONDA SANTO AGOSTINHO 27211260 RJ 77;VOLTA REDONDA;-22.486629300;-44.081716900;G0;RJVRD-A03SP10;RJVRD-A03SP10-SS8;VRD_A03_1_GPON_VLAN_109_110_111-ALC;1/1/1/10
EQP0000000075382500;I04G0517;CTO - PAD TEL-B-85/15;RJVRD_G1I04;RUA NATAL VOLTA REDONDA MORRO DA CONQUISTA 27210000 RJ 1;VOLTA REDONDA;-22.492730000;-44.069889800;G0;RJVRD-I04SP65;RJVRD-I04SP65-SS5;VRD_I04_1_GPON_VLAN_127_128_129-ALC;1/1/4/3
EQP0000000075382395;I01G0149;CTO - PAD TELEFONICA;RJVRD_G1I01;RUA QUINHENTOS E SETENTA E QUATRO VOLTA REDONDA NOSSA SENHORA DAS GRACAS 27215430 RJ 167;VOLTA REDONDA;-22.501143700;-44.094630700;G0;RJVRD-I01SP19;RJVRD-I01SP19-SS5;VRD_I01_1_GPON_VLAN_100_101_102-ALC;1/1/1/12
EQP0000000075388180;A07GF478;CTO - PAD TELEFONICA;RJVRD_G1A07;AVENIDA AMARAL PEIXOTO VOLTA REDONDA SAO JOAO 27253221 RJ 334;VOLTA REDONDA;-22.512914300;-44.092226100;OUTROS;RJVRD-A07SP60;RJVRD-A07SP60-SS6;VRD_A07_1_GPON_VLAN_118_119_120-ALC;1/1/3/8
EQP0000000075382057;I01G0211;CTO - PAD TELEFONICA;RJVRD_G1I01;AVENIDA LUCAS EVANGELISTA DE OLIVEIRA FRANCO VOLTA REDONDA ATERRADO 27215630 RJ 1090;VOLTA REDONDA;-22.501367700;-44.093047800;G0;RJVRD-I01SP27;RJVRD-I01SP27-SS3;VRD_I01_1_GPON_VLAN_100_101_102-ALC;1/1/2/4
EQP0000000075385215;A03G0503;CTO - PAD TELEFONICA;RJVRD_G1A03;RUA MANAUS VOLTA REDONDA SANTO AGOSTINHO 27210120 RJ 72;VOLTA REDONDA;-22.489094700;-44.073598000;G0;RJVRD-A03SP63;RJVRD-A03SP63-SS7;VRD_A03_1_GPON_VLAN_109_110_111-ALC;1/1/3/11
EQP0000000075383200;A01G0218;CTO - PAD TELEFONICA;RJVRD_G1A01;RUA SAO JUDAS TADEU VOLTA REDONDA RETIRO 27275210 RJ 66;VOLTA REDONDA;-22.500910900;-44.118759000;G0;RJVRD-A01SP28;RJVRD-A01SP28-SS2;VRD_A01_1_GPON_VLAN_103_104_105-ALC;1/1/2/6
EQP0000000075383746;A03G0091;CTO - PAD TELEFONICA;RJVRD_G1A03;RUA AMADOR BUENO VOLTA REDONDA SANTO AGOSTINHO 27211240 RJ 65;VOLTA REDONDA;-22.488974900;-44.080527100;G0;RJVRD-A03SP12;RJVRD-A03SP12-SS3;VRD_A03_1_GPON_VLAN_109_110_111-ALC;1/1/1/12
EQP0000000075388648;I03G0249;CTO - PAD TELEFONICA - B;RJVRD_G1I03;RUA JOSE CORREA FONSECA VOLTA REDONDA JARDIM BELVEDERE 27258606 RJ 11;VOLTA REDONDA;-22.530625900;-44.077439200;G0;RJVRD-I03SP32;RJVRD-I03SP32-SS1;VRD_I03_1_GPON_VLAN_234_235_236-HUA;1/1/2/11
EQP0000000075386102;A07G0204;CTO - PAD TELEFONICA;RJVRD_G1A07;RUA DEZ A VOLTA REDONDA VILA SANTA CECILIA 27255037 RJ 527;VOLTA REDONDA;-22.513395900;-44.096700000;G0;RJVRD-A07SP26;RJVRD-A07SP26-SS4;VRD_A07_1_GPON_VLAN_118_119_120-ALC;1/1/2/3
EQP0000000075381582;A01G0326;CTO - PAD TELEFONICA;RJVRD_G1A01;AVENIDA SANTA RITA VOLTA REDONDA RETIRO 27277210 RJ 250;VOLTA REDONDA;-22.497837200;-44.125182400;G0;RJVRD-A01SP41;RJVRD-A01SP41-SS6;VRD_A01_1_GPON_VLAN_103_104_105-ALC;1/1/2/13
EQP0000000075385328;A03G0012;CTO - PAD TELEFONICA;RJVRD_G1A03;RUA DARCY RIBEIRO VOLTA REDONDA SANTO AGOSTINHO 27211332 RJ 42;VOLTA REDONDA;-22.487379500;-44.086479600;G0;RJVRD-A03SP2;RJVRD-A03SP2-SS4;VRD_A03_1_GPON_VLAN_109_110_111-ALC;1/1/1/2
EQP0000000075381249;A01G0365;CTO - PAD TELEFONICA;RJVRD_G1A01;AVENIDA ANTONIO DE ALMEIDA VOLTA REDONDA RETIRO 27277330 RJ 826;VOLTA REDONDA;-22.500166000;-44.119825800;G0;RJVRD-A01SP46;RJVRD-A01SP46-SS5;VRD_A01_1_GPON_VLAN_103_104_105-ALC;1/1/3/2
EQP0000000075392445;A07G0011;CTO - PAD TELEFONICA;RJVRD_G1A07;RUA CINQUENTA E OITO VOLTA REDONDA VILA SANTA CECILIA 27261080 RJ 15;VOLTA REDONDA;-22.523615900;-44.100828500;G0;RJVRD-A07SP2;RJVRD-A07SP2-SS3;VRD_A07_1_GPON_VLAN_118_119_120-ALC;1/1/1/2
EQP0000000079574823;A06GP325;MINI CDOE 1:2 + 1:8 PRECON SELADA 60/40;RJVRD_G1A06;LARGO NOVE DE ABRIL VOLTA REDONDA VILA SANTA CECILIA 27260180 RJ 26;VOLTA REDONDA;-22.517167500;-44.106469900;GP;RJVRD-A06SP41;RJVRD-A06SP41-SS5;VRD_A06_1_GPON_VLAN_115_116_117-ALC;1/1/2/10
EQP0000000075383617;A05G0033;CTO - PAD TELEFONICA;RJVRD_G1A05;RUA IGUAPE VOLTA REDONDA MINERLANDIA 27330470 RJ 380;VOLTA REDONDA;-22.535003700;-44.120510700;G0;RJVRD-A05SP5;RJVRD-A05SP5-SS1;VRD_A05_1_GPON_VLAN_112_113_114-ALC;1/1/1/5
EQP0000000075386775;I02G0413;CTO - PAD TEL-B-85/15;RJVRD_G1I02;RUA FRANCISCO PEDRO VITORINO VOLTA REDONDA EUCALIPTAL 27264030 RJ 50;VOLTA REDONDA;-22.525242700;-44.122276100;G0;RJVRD-I02SP52;RJVRD-I02SP52-SS5;VRD_I02_1_GPON_VLAN_231_232_233-HUA;1/1/3/6
EQP0000000075383737;A03G0077;CTO - PAD TELEFONICA;RJVRD_G1A03;RUA RUBENS SIMOES VOLTA REDONDA SANTO AGOSTINHO 27211490 RJ 189;VOLTA REDONDA;-22.487895400;-44.082010800;G0;RJVRD-A03SP10;RJVRD-A03SP10-SS5;VRD_A03_1_GPON_VLAN_109_110_111-ALC;1/1/1/10
EQP0000000075393254;A01G0323;CTO - PAD TELEFONICA;RJVRD_G1A01;AVENIDA SANTA CRUZ VOLTA REDONDA RETIRO 27277160 RJ 310;VOLTA REDONDA;-22.496615700;-44.124546900;G0;RJVRD-A01SP41;RJVRD-A01SP41-SS3;VRD_A01_1_GPON_VLAN_103_104_105-ALC;1/1/2/13
EQP0000000075386317;I02G0447;CTO - PAD TEL-B-90/10;RJVRD_G1I02;RUA DUZENTOS E TRINTA E NOVE VOLTA REDONDA CONFORTO 27263340 RJ 19;VOLTA REDONDA;-22.524333300;-44.126121000;G0;RJVRD-I02SP56;RJVRD-I02SP56-SS7;VRD_I02_1_GPON_VLAN_231_232_233-HUA;1/1/3/10
EQP0000000075387719;A02GP467;TO;RJVRD_G1A02;RUA SAO GABRIEL VOLTA REDONDA NITEROI 27283230 RJ 119;VOLTA REDONDA;-22.499370700;-44.088719300;GP;RJVRD-A02SP59;RJVRD-A02SP59-SS3;VRD_A02_1_GPON_VLAN_106_107_108-ALC;1/1/3/7
EQP0000000075383171;A01G0476;CTO - PAD TELEFONICA;RJVRD_G1A01;RUA JOAO BATISTA DE ASSIS VOLTA REDONDA RETIRO 27275390 RJ 262;VOLTA REDONDA;-22.506430400;-44.120680000;G0;RJVRD-A01SP60;RJVRD-A01SP60-SS4;VRD_A01_1_GPON_VLAN_103_104_105-ALC;1/1/3/9
EQP0000000075383478;A03G0154;CTO - PAD TELEFONICA;RJVRD_G1A03;RUA MIL E QUARENTA E TRES VOLTA REDONDA SANTO AGOSTINHO 27211670 RJ 13;VOLTA REDONDA;-22.483057500;-44.075479500;G0;RJVRD-A03SP20;RJVRD-A03SP20-SS2;VRD_A03_1_GPON_VLAN_109_110_111-ALC;1/1/1/14
EQP0000000075387375;A08G0488;CTO - PAD TELEFONICA;RJVRD_G1A08;RUA PAPA PAULO VI VOLTA REDONDA JARDIM AMALIA 27251340 RJ 54;VOLTA REDONDA;-22.509526200;-44.080308100;G0;RJVRD-A08SP61;RJVRD-A08SP61-SS8;VRD_A08_1_GPON_VLAN_121_122_123-ALC;1/1/3/8
EQP0000000075387514;A07G0064;CTO - PAD TELEFONICA;RJVRD_G1A07;RUA TREZENTOS E DEZOITO VOLTA REDONDA SESSENTA 27256110 RJ 29;VOLTA REDONDA;-22.524596600;-44.092113400;G0;RJVRD-A07SP8;RJVRD-A07SP8-SS8;VRD_A07_1_GPON_VLAN_118_119_120-ALC;1/1/1/8
EQP0000000075385869;A03G0479;CTO - PAD TELEFONICA;RJVRD_G1A03;RUA VITORIA VOLTA REDONDA SANTO AGOSTINHO 27210415 RJ 209;VOLTA REDONDA;-22.487280700;-44.073669600;G0;RJVRD-A03SP60;RJVRD-A03SP60-SS7;VRD_A03_1_GPON_VLAN_109_110_111-ALC;1/1/3/8
EQP0000000075381595;I01G0486;CTO - PAD TELEFONICA;RJVRD_G1I01;AVENIDA OSCAR DE ALMEIDA GAMA VOLTA REDONDA ATERRADO 27213260 RJ 33;VOLTA REDONDA;-22.507766900;-44.091721000;G0;RJVRD-I01SP61;RJVRD-I01SP61-SS6;VRD_I01_1_GPON_VLAN_100_101_102-ALC;1/1/3/7
EQP0000000075390631;I03G0791;CTO - PAD TEL-B-90/10;RJVRD_G1I03;RUA PROFESSOR AFONSO LEITE VOLTA REDONDA JARDIM AMALIA 27251360 RJ 45;VOLTA REDONDA;-22.511734300;-44.082618500;G0;RJVRD-I03SP99;RJVRD-I03SP99-SS7;VRD_I03_1_GPON_VLAN_234_235_236-HUA;1/1/5/3
EQP0000000075390991;I03G01065;CTO - PAD TELEFONICA - B;RJVRD_G1I03;RUA MIGUEL JOSE PEREIRA VOLTA REDONDA SAO GERALDO 27200000 RJ 47;VOLTA REDONDA;-22.519041900;-44.086498000;G0;RJVRD-I03SP134;RJVRD-I03SP134-SS1;VRD_I03_1_GPON_VLAN_234_235_236-HUA;1/1/6/15
EQP0000000075383059;I01G0308;CTO - PAD TELEFONICA;RJVRD_G1I01;RUA NEME FELIPE VOLTA REDONDA ATERRADO 27215090 RJ 56;VOLTA REDONDA;-22.511169600;-44.095118700;G0;RJVRD-I01SP39;RJVRD-I01SP39-SS4;VRD_I01_1_GPON_VLAN_100_101_102-ALC;1/1/2/10
EQP0000000075382193;I04G0459;CTO - PAD TELEFONICA;RJVRD_G1I04;RUA SURINAME VOLTA REDONDA VILA AMERICANA 27212220 RJ 132;VOLTA REDONDA;-22.495442400;-44.072557500;G0;RJVRD-I04SP58;RJVRD-I04SP58-SS3;VRD_I04_1_GPON_VLAN_127_128_129-ALC;1/1/3/12
EQP0000000075392573;A07GPT300;CTO - PAD TELEFONICA;RJVRD_G1A07;RODOVIA VRD 001 DOS METALURGICOS VOLTA REDONDA SAO GERALDO 27253005 RJ 1001;VOLTA REDONDA;-22.519860000;-44.081670800;GPT;RJVRD-A07SP38;RJVRD-A07SP38-SS4;VRD_A07_1_GPON_VLAN_118_119_120-ALC;1/1/2/9
EQP0000000075393534;I02G0537;CTO - PAD TELEFONICA - B;RJVRD_G1I02;RUA DOIS VOLTA REDONDA BELA VISTA 27262030 RJ 55;VOLTA REDONDA;-22.518183500;-44.111929500;G0;RJVRD-I02SP68;RJVRD-I02SP68-SS1;VRD_I02_1_GPON_VLAN_231_232_233-HUA;1/1/4/6
EQP0000000075385349;A02G0340;CTO - PAD TELEFONICA;RJVRD_G1A02;RUA WALTER H MOORE VOLTA REDONDA VILA MURY 27281570 RJ 93;VOLTA REDONDA;-22.496235000;-44.101019400;G0;RJVRD-A02SP43;RJVRD-A02SP43-SS4;VRD_A02_1_GPON_VLAN_106_107_108-ALC;1/1/2/14
EQP0000000075385769;A06G0297;CTO - PAD TELEFONICA;RJVRD_G1A06;RUA VINTE E SEIS VOLTA REDONDA VILA SANTA CECILIA 27262500 RJ 563;VOLTA REDONDA;-22.522053500;-44.107649500;G0;RJVRD-A06SP38;RJVRD-A06SP38-SS1;VRD_A06_1_GPON_VLAN_115_116_117-ALC;1/1/2/7
EQP0000000075392136;A05G0180;CTO - PAD TELEFONICA;RJVRD_G1A05;RUA OLIVEIRA BOTELHO VOLTA REDONDA EUCALIPTAL 27263160 RJ 300;VOLTA REDONDA;-22.526942500;-44.120560400;G0;RJVRD-A05SP23;RJVRD-A05SP23-SS4;VRD_A05_1_GPON_VLAN_112_113_114-ALC;1/1/2/4
EQP0000000075391675;A06GP324;TO;RJVRD_G1A06;RUA QUATORZE VOLTA REDONDA VILA SANTA CECILIA 27260140 RJ 337;VOLTA REDONDA;-22.517453300;-44.106673300;GP;RJVRD-A06SP41;RJVRD-A06SP41-SS4;VRD_A06_1_GPON_VLAN_115_116_117-ALC;1/1/2/10
EQP0000000075387035;A09G0028;CTO - PAD TELEFONICA;RJVRD_G1A09;RUA ALCY DE ARAUJO MENDONCA VOLTA REDONDA JARDIM BELVEDERE 27258495 RJ 109;VOLTA REDONDA;-22.534219300;-44.065781500;G0;RJVRD-A09SP4;RJVRD-A09SP4-SS4;VRD_A09_1_GPON_VLAN_124_125_126-ALC;1/1/1/4
EQP0000000075380966;A01G0181;CTO - PAD TELEFONICA;RJVRD_G1A01;RUA JOAQUIM RABELO DA FONSECA VOLTA REDONDA RETIRO 27275110 RJ 270;VOLTA REDONDA;-22.499420500;-44.112718000;G0;RJVRD-A01SP23;RJVRD-A01SP23-SS5;VRD_A01_1_GPON_VLAN_103_104_105-ALC;1/1/2/1
EQP0000000075383585;A03G0069;CTO - PAD TELEFONICA;RJVRD_G1A03;RUA TEXAS VOLTA REDONDA SANTO AGOSTINHO 27211520 RJ 85;VOLTA REDONDA;-22.485159400;-44.081847300;G0;RJVRD-A03SP9;RJVRD-A03SP9-SS5;VRD_A03_1_GPON_VLAN_109_110_111-ALC;1/1/1/9
EQP0000000075388139;A07G0343;CTO - PAD TELEFONICA;RJVRD_G1A07;RUA PROFESSOR MAURILO GOMES DA SILVEIRA VOLTA REDONDA MONTE CASTELO 27253120 RJ 588;VOLTA REDONDA;-22.522796200;-44.087720700;G0;RJVRD-A07SP43;RJVRD-A07SP43-SS7;VRD_A07_1_GPON_VLAN_118_119_120-ALC;1/1/2/14
EQP0000000075383036;I01G0033;CTO - PAD TELEFONICA;RJVRD_G1I01;RUA DESEMBARGADOR CEZAR SALAMONDE VOLTA REDONDA ATERRADO 27213061 RJ 410;VOLTA REDONDA;-22.506470700;-44.087604000;G0;RJVRD-I01SP5;RJVRD-I01SP5-SS1;VRD_I01_1_GPON_VLAN_100_101_102-ALC;1/1/1/5
EQP0000000075384159;A05G0335;CTO - PAD TELEFONICA;RJVRD_G1A05;RUA TIRANA VOLTA REDONDA PONTE ALTA 27267380 RJ 140;VOLTA REDONDA;-22.534320900;-44.133103000;G0;RJVRD-A05SP42;RJVRD-A05SP42-SS7;VRD_A05_1_GPON_VLAN_112_113_114-ALC;1/1/3/5
EQP0000000075386927;A08G0325;CTO - PAD TELEFONICA;RJVRD_G1A08;RUA GENERAL SAMPAIO VOLTA REDONDA SAO GERALDO 27253570 RJ 90;VOLTA REDONDA;-22.513968500;-44.086767900;G0;RJVRD-A08SP41;RJVRD-A08SP41-SS5;VRD_A08_1_GPON_VLAN_121_122_123-ALC;1/1/2/11
EQP0000000079588947;A07GP438;MINI CDOE 1:2 + 1:8 PRECON SELADA 60/40;RJVRD_G1A07;RUA MAJOR AGUIAR VOLTA REDONDA SAO JOAO 27253450 RJ 65;VOLTA REDONDA;-22.512241500;-44.091760900;GP;RJVRD-A07SP55;RJVRD-A07SP55-SS6;VRD_A07_1_GPON_VLAN_118_119_120-ALC;1/1/3/3
EQP0000000075381911;I01G0226;CTO - PAD TELEFONICA;RJVRD_G1I01;RUA SEGUNDO CABO PEDRO MARIA NETTO VOLTA REDONDA ATERRADO 27215590 RJ 82;VOLTA REDONDA;-22.504774500;-44.093338100;G0;RJVRD-I01SP29;RJVRD-I01SP29-SS2;VRD_I01_1_GPON_VLAN_100_101_102-ALC;1/1/2/6
EQP0000000075385082;A03G0509;CTO - PAD TELEFONICA;RJVRD_G1A03;RUA SARGENTO JAIME PANTALEAO DE MORAES VOLTA REDONDA MORRO DA CONQUISTA 27211030 RJ 196;VOLTA REDONDA;-22.489091700;-44.077552000;G0;RJVRD-A03SP64;RJVRD-A03SP64-SS5;VRD_A03_1_GPON_VLAN_109_110_111-ALC;1/1/3/12
EQP0000000075385865;A03G0470;CTO - PAD TELEFONICA;RJVRD_G1A03;RUA JOAO PESSOA VOLTA REDONDA SANTO AGOSTINHO 27210390 RJ 291;VOLTA REDONDA;-22.488519500;-44.074147400;G0;RJVRD-A03SP59;RJVRD-A03SP59-SS6;VRD_A03_1_GPON_VLAN_109_110_111-ALC;1/1/3/7
EQP0000000075385398;A03G0490;CTO - PAD TELEFONICA;RJVRD_G1A03;RUA MIL E CINQUENTA E DOIS VOLTA REDONDA SANTO AGOSTINHO 27211620 RJ 9;VOLTA REDONDA;-22.486269700;-44.075366800;G0;RJVRD-A03SP62;RJVRD-A03SP62-SS2;VRD_A03_1_GPON_VLAN_109_110_111-ALC;1/1/3/10
EQP0000000075385864;A03G0471;CTO - PAD TELEFONICA;RJVRD_G1A03;RUA VITORIA VOLTA REDONDA SANTO AGOSTINHO 27210415 RJ 69;VOLTA REDONDA;-22.488260000;-44.074752700;G0;RJVRD-A03SP59;RJVRD-A03SP59-SS7;VRD_A03_1_GPON_VLAN_109_110_111-ALC;1/1/3/7
EQP0000000075383783;A03G0168;CTO - PAD TELEFONICA;RJVRD_G1A03;RUA MIL E QUARENTA E TRES VOLTA REDONDA SANTO AGOSTINHO 27211670 RJ 38;VOLTA REDONDA;-22.484133500;-44.074363500;G0;RJVRD-A03SP21;RJVRD-A03SP21-SS8;VRD_A03_1_GPON_VLAN_109_110_111-ALC;1/1/1/15
EQP0000000075390844;I03G01070;CTO - PAD TEL-B-90/10;RJVRD_G1I03;RUA MARCELO MONTEIRO CESAR VOLTA REDONDA SAO GERALDO 27253600 RJ 10;VOLTA REDONDA;-22.515976500;-44.087399000;G0;RJVRD-I03SP134;RJVRD-I03SP134-SS6;VRD_I03_1_GPON_VLAN_234_235_236-HUA;1/1/6/15
EQP0000000075383153;I04G0324;CTO - PAD TELEFONICA;RJVRD_G1I04;RUA MIL E DEZOITO VOLTA REDONDA VOLTA GRANDE II 27210450 RJ 14;VOLTA REDONDA;-22.489725400;-44.067698200;G0;RJVRD-I04SP41;RJVRD-I04SP41-SS4;VRD_I04_1_GPON_VLAN_127_128_129-ALC;1/1/3/1
EQP0000000075387143;I02G0595;CTO - PAD TEL-B-70/30;RJVRD_G1I02;RUA CAXAMBU VOLTA REDONDA MINERLANDIA 27264760 RJ 313;VOLTA REDONDA;-22.534443600;-44.122096300;G0;RJVRD-I02SP75;RJVRD-I02SP75-SS3;VRD_I02_1_GPON_VLAN_231_232_233-HUA;1/1/4/13
EQP0000000075382381;I01G0182;CTO - PAD TELEFONICA;RJVRD_G1I01;AVENIDA LUCAS EVANGELISTA DE OLIVEIRA FRANCO VOLTA REDONDA ATERRADO 27215630 RJ 1009;VOLTA REDONDA;-22.501982200;-44.093264400;G0;RJVRD-I01SP23;RJVRD-I01SP23-SS6;VRD_I01_1_GPON_VLAN_100_101_102-ALC;1/1/1/16
EQP0000000079583828;A07GP46;MINI CDOE 1:2 + 1:8 PRECON SELADA 60/40;RJVRD_G1A07;RUA SESSENTA VOLTA REDONDA SESSENTA 27256712 RJ 1811;VOLTA REDONDA;-22.528561700;-44.090977200;GP;RJVRD-A07SP6;RJVRD-A07SP6-SS6;VRD_A07_1_GPON_VLAN_118_119_120-ALC;1/1/1/6
EQP0000000075386719;A09G0080;CTO - PAD TELEFONICA;RJVRD_G1A09;RUA OTTO AUGUSTO MEISTER VOLTA REDONDA JARDIM BELVEDERE 27258500 RJ 95;VOLTA REDONDA;-22.531554800;-44.067208000;G0;RJVRD-A09SP10;RJVRD-A09SP10-SS8;VRD_A09_1_GPON_VLAN_124_125_126-ALC;1/1/1/10
EQP0000000075382222;I01G0208;CTO - PAD TELEFONICA;RJVRD_G1I01;RUA SEGUNDO CABO PEDRO MARIA NETTO VOLTA REDONDA ATERRADO 27215590 RJ 154;VOLTA REDONDA;-22.504331100;-44.093319900;G0;RJVRD-I01SP26;RJVRD-I01SP26-SS8;VRD_I01_1_GPON_VLAN_100_101_102-ALC;1/1/2/3
EQP0000000075388018;I01GP067;TO;RJVRD_G1I01;RUA RUY BARBOSA DE OLIVEIRA VOLTA REDONDA ATERRADO 27215510 RJ 57;VOLTA REDONDA;-22.502941300;-44.091840500;GP;RJVRD-I01SP9;RJVRD-I01SP9-SS3;VRD_I01_1_GPON_VLAN_100_101_102-ALC;1/1/1/9
EQP0000000075383409;A03G0061;CTO - PAD TELEFONICA;RJVRD_G1A03;RUA AYRTON SENNA VOLTA REDONDA SANTO AGOSTINHO 27211555 RJ 34;VOLTA REDONDA;-22.485484000;-44.084130100;G0;RJVRD-A03SP8;RJVRD-A03SP8-SS5;VRD_A03_1_GPON_VLAN_109_110_111-ALC;1/1/1/8
EQP0000000075393563;A03G0452;CTO - PAD TELEFONICA;RJVRD_G1A03;RUA MIL E DEZESSETE VOLTA REDONDA SANTO AGOSTINHO 27210254 RJ 181;VOLTA REDONDA;-22.486622000;-44.073413100;G0;RJVRD-A03SP57;RJVRD-A03SP57-SS4;VRD_A03_1_GPON_VLAN_109_110_111-ALC;1/1/3/5
EQP0000000075384277;A02G0495;CTO - PAD TELEFONICA;RJVRD_G1A02;RUA SANTA ALZIRA VOLTA REDONDA NITEROI 27283440 RJ 75;VOLTA REDONDA;-22.497487200;-44.093446100;G0;RJVRD-A02SP62;RJVRD-A02SP62-SS7;VRD_A02_1_GPON_VLAN_106_107_108-ALC;1/1/3/10
EQP0000000075381396;A01G0356;CTO - PAD TELEFONICA;RJVRD_G1A01;AVENIDA ANTONIO DE ALMEIDA VOLTA REDONDA RETIRO 27277330 RJ 982;VOLTA REDONDA;-22.500155300;-44.121103800;G0;RJVRD-A01SP45;RJVRD-A01SP45-SS4;VRD_A01_1_GPON_VLAN_103_104_105-ALC;1/1/3/1
EQP0000000075387280;I02G0294;CTO - PAD TEL-B-90/10;RJVRD_G1I02;RUA VEREADOR ALDILIO CARVALHO FRANCA VOLTA REDONDA PONTE ALTA 27267370 RJ 347;VOLTA REDONDA;-22.534203600;-44.133807600;G0;RJVRD-I02SP37;RJVRD-I02SP37-SS6;VRD_I02_1_GPON_VLAN_231_232_233-HUA;1/1/2/14
EQP0000000079603529;A07GP455;MINI CDOE 1:2 + 1:8 PRECON SELADA 60/40;RJVRD_G1A07;AVENIDA AMARAL PEIXOTO VOLTA REDONDA SAO JOAO 27253222 RJ 91;VOLTA REDONDA;-22.512978600;-44.094392400;GP;RJVRD-A07SP57;RJVRD-A07SP57-SS7;VRD_A07_1_GPON_VLAN_118_119_120-ALC;1/1/3/5
EQP0000000075385323;A02G0052;CTO - PAD TELEFONICA;RJVRD_G1A02;RUA ANGRA DOS REIS VOLTA REDONDA RETIRO 27281450 RJ 187;VOLTA REDONDA;-22.494430200;-44.102799000;G0;RJVRD-A02SP7;RJVRD-A02SP7-SS4;VRD_A02_1_GPON_VLAN_106_107_108-ALC;1/1/1/7
EQP0000000079633101;I01GP343;MINI CDOE 1:2 + 1:8 PRECON SELADA 60/40;RJVRD_G1I01;RUA NOVE DE ABRIL VOLTA REDONDA ATERRADO 27213250 RJ 175;VOLTA REDONDA;-22.509845300;-44.091605800;GP;RJVRD-I01SP43;RJVRD-I01SP43-SS7;VRD_I01_1_GPON_VLAN_100_101_102-ALC;1/1/2/14
EQP0000000075393408;A01G0060;CTO - PAD TELEFONICA;RJVRD_G1A01;RUA DAS ROSEIRAS VOLTA REDONDA RETIRO 27275280 RJ 110;VOLTA REDONDA;-22.502421400;-44.112075400;G0;RJVRD-A01SP8;RJVRD-A01SP8-SS4;VRD_A01_1_GPON_VLAN_103_104_105-ALC;1/1/1/8
EQP0000000075393121;I01G0335;CTO - PAD TELEFONICA;RJVRD_G1I01;AVENIDA PAULO DE FRONTIN VOLTA REDONDA ATERRADO 27215580 RJ 242;VOLTA REDONDA;-22.509839800;-44.093986300;G0;RJVRD-I01SP42;RJVRD-I01SP42-SS7;VRD_I01_1_GPON_VLAN_100_101_102-ALC;1/1/2/13
EQP0000000075388193;A02GP294;TO;RJVRD_G1A02;RUA MADAME CURIE VOLTA REDONDA VILA MURY 27281040 RJ 315;VOLTA REDONDA;-22.499706200;-44.099822800;GP;RJVRD-A02SP37;RJVRD-A02SP37-SS6;VRD_A02_1_GPON_VLAN_106_107_108-ALC;1/1/2/8
EQP0000000075387287;I02G0290;CTO - PAD TEL-B-60/40;RJVRD_G1I02;RUA OSMARINO NOVAES VOLTA REDONDA PONTE ALTA 27267410 RJ 239;VOLTA REDONDA;-22.536445300;-44.134419600;G0;RJVRD-I02SP37;RJVRD-I02SP37-SS2;VRD_I02_1_GPON_VLAN_231_232_233-HUA;1/1/2/14
EQP0000000075383050;I01G0321;CTO - PAD TELEFONICA;RJVRD_G1I01;AVENIDA PAULO DE FRONTIN VOLTA REDONDA ATERRADO 27215580 RJ 49;VOLTA REDONDA;-22.511237200;-44.094489300;G0;RJVRD-I01SP41;RJVRD-I01SP41-SS1;VRD_I01_1_GPON_VLAN_100_101_102-ALC;1/1/2/12
EQP0000000075386318;I03G0562;CTO - PAD TEL-B-60/40;RJVRD_G1I03;RUA GHANDI VOLTA REDONDA MONTE CASTELO 27253123 RJ 446;VOLTA REDONDA;-22.523095500;-44.085659700;G0;RJVRD-I03SP71;RJVRD-I03SP71-SS2;VRD_I03_1_GPON_VLAN_234_235_236-HUA;1/1/3/13
EQP0000000075384527;A06G0203;CTO - PAD TELEFONICA;RJVRD_G1A06;RUA DEZESSETE-A VOLTA REDONDA BELA VISTA 27262200 RJ 320;VOLTA REDONDA;-22.522326500;-44.109803200;G0;RJVRD-A06SP26;RJVRD-A06SP26-SS3;VRD_A06_1_GPON_VLAN_115_116_117-ALC;1/1/2/4
EQP0000000075385142;A08G0182;CTO - PAD TELEFONICA;RJVRD_G1A08;RUA FERNAO DE MAGALHAES VOLTA REDONDA JARDIM AMALIA 27250400 RJ 192;VOLTA REDONDA;-22.507333700;-44.074602700;G0;RJVRD-A08SP23;RJVRD-A08SP23-SS6;VRD_A08_1_GPON_VLAN_121_122_123-ALC;1/1/1/16
EQP0000000079642834;I01GP359;MINI CDOE 1:2 + 1:8 PRECON SELADA 60/40;RJVRD_G1I01;AVENIDA PAULO DE FRONTIN VOLTA REDONDA ATERRADO 27213150 RJ 310;VOLTA REDONDA;-22.509356100;-44.093772700;GP;RJVRD-I01SP45;RJVRD-I01SP45-SS7;VRD_I01_1_GPON_VLAN_100_101_102-ALC;1/1/2/16
EQP0000000075382863;A01G0506;CTO - PAD TELEFONICA;RJVRD_G1A01;RUA MIGUEL PEREIRA VOLTA REDONDA RETIRO 27275550 RJ 145;VOLTA REDONDA;-22.503701500;-44.120062000;G0;RJVRD-A01SP64;RJVRD-A01SP64-SS2;VRD_A01_1_GPON_VLAN_103_104_105-ALC;1/1/3/13
EQP0000000075384612;A06G0370;CTO - PAD TELEFONICA;RJVRD_G1A06;RUA NOVE VOLTA REDONDA CONFORTO 27262100 RJ 11;VOLTA REDONDA;-22.518930900;-44.111980000;G0;RJVRD-A06SP47;RJVRD-A06SP47-SS8;VRD_A06_1_GPON_VLAN_115_116_117-ALC;1/1/2/16
EQP0000000075384092;A03G0220;CTO - PAD TELEFONICA;RJVRD_G1A03;RUA MIL E CINQUENTA-A VOLTA REDONDA SANTO AGOSTINHO 27211610 RJ 95;VOLTA REDONDA;-22.486077100;-44.077299500;G0;RJVRD-A03SP28;RJVRD-A03SP28-SS4;VRD_A03_1_GPON_VLAN_109_110_111-ALC;1/1/2/6
EQP0000000075392994;I03G0643;CTO - PAD TEL-B-70/30;RJVRD_G1I03;RUA CRISTOVAO COLOMBO VOLTA REDONDA JARDIM AMALIA 27251025 RJ 359;VOLTA REDONDA;-22.508655900;-44.077025500;G0;RJVRD-I03SP81;RJVRD-I03SP81-SS3;VRD_I03_1_GPON_VLAN_234_235_236-HUA;1/1/4/1
EQP0000000075385052;A02G0440;CTO - PAD TELEFONICA;RJVRD_G1A02;RUA LUIZ LOPES DORNELLES VOLTA REDONDA AERO CLUBE 27283110 RJ 360;VOLTA REDONDA;-22.502895900;-44.080407200;G0;RJVRD-A02SP55;RJVRD-A02SP55-SS8;VRD_A02_1_GPON_VLAN_106_107_108-ALC;1/1/3/3
EQP0000000075393534;I02G0537;CTO - PAD TELEFONICA - B;RJVRD_G1I02;RUA DOIS VOLTA REDONDA BELA VISTA 27262030 RJ 55;VOLTA REDONDA;-22.518183500;-44.111929500;G0;RJVRD-I02SP68;RJVRD-I02SP68-SS1;VRD_I02_1_GPON_VLAN_231_232_233-HUA;1/1/4/6
EQP0000000075384592;A03G0190;CTO - PAD TELEFONICA;RJVRD_G1A03;RUA MIL E TRINTA E TRES VOLTA REDONDA SANTO AGOSTINHO 27211795 RJ 133;VOLTA REDONDA;-22.483754900;-44.078112700;G0;RJVRD-A03SP24;RJVRD-A03SP24-SS6;VRD_A03_1_GPON_VLAN_109_110_111-ALC;1/1/2/2
EQP0000000075388023;I01GP500;TO;RJVRD_G1I01;AVENIDA DEZESSETE DE JULHO VOLTA REDONDA ATERRADO 27213200 RJ 98;VOLTA REDONDA;-22.507052200;-44.092067600;GP;RJVRD-I01SP63;RJVRD-I01SP63-SS4;VRD_I01_1_GPON_VLAN_100_101_102-ALC;1/1/3/9
EQP0000000075383866;A08G0064;CTO - PAD TELEFONICA;RJVRD_G1A08;RUA CARLOS SIMOES VOLTA REDONDA JARDIM AMALIA 27251184 RJ 13;VOLTA REDONDA;-22.516227100;-44.070752600;G0;RJVRD-A08SP8;RJVRD-A08SP8-SS8;VRD_A08_1_GPON_VLAN_121_122_123-ALC;1/1/1/8
EQP0000000075392234;I03G0117;CTO - PAD TEL-B-85/15;RJVRD_G1I03;RUA VINTE E UM VOLTA REDONDA JARDIM VILA RICA   TIRADENTES 27259230 RJ 220;VOLTA REDONDA;-22.543348500;-44.063902500;G0;RJVRD-I03SP15;RJVRD-I03SP15-SS5;VRD_I03_1_GPON_VLAN_234_235_236-HUA;1/1/1/10
EQP0000000075386418;A08G0365;CTO - PAD TELEFONICA;RJVRD_G1A08;RUA ITAMAR DE ASSIS PEREIRA VOLTA REDONDA JARDIM AMALIA 27251250 RJ 660;VOLTA REDONDA;-22.517680800;-44.080688800;G0;RJVRD-A08SP46;RJVRD-A08SP46-SS5;VRD_A08_1_GPON_VLAN_121_122_123-ALC;1/1/2/16
EQP0000000075391719;A05G0222;CTO - PAD TELEFONICA;RJVRD_G1A05;RUA FARIAS DE BRITO VOLTA REDONDA CONFORTO 27265270 RJ 340;VOLTA REDONDA;-22.528517700;-44.125869500;G0;RJVRD-A05SP28;RJVRD-A05SP28-SS6;VRD_A05_1_GPON_VLAN_112_113_114-ALC;1/1/2/9
EQP0000000075388445;I03G0983;CTO - PAD TEL-B-90/10;RJVRD_G1I03;RUA DEZ A VOLTA REDONDA VILA SANTA CECILIA 27255037 RJ 409;VOLTA REDONDA;-22.513663200;-44.097686700;G0;RJVRD-I03SP123;RJVRD-I03SP123-SS7;VRD_I03_1_GPON_VLAN_234_235_236-HUA;1/1/6/4
EQP0000000075388630;I03GPC559;TO;RJVRD_G1I03;RUA SAO JOAO VOLTA REDONDA SAO JOAO 27253360 RJ 657;VOLTA REDONDA;-22.517522500;-44.094673700;GP;RJVRD-I03SP70;RJVRD-I03SP70-SS7;VRD_I03_1_GPON_VLAN_234_235_236-HUA;1/1/3/12
EQP0000000075383493;A03G0434;CTO - PAD TELEFONICA;RJVRD_G1A03;RUA MIL E DEZENOVE VOLTA REDONDA SANTO AGOSTINHO 27210250 RJ 13;VOLTA REDONDA;-22.487035700;-44.070214100;G0;RJVRD-A03SP55;RJVRD-A03SP55-SS2;VRD_A03_1_GPON_VLAN_109_110_111-ALC;1/1/3/3
EQP0000000075383951;A03G0176;CTO - PAD TELEFONICA;RJVRD_G1A03;RUA MIL E QUARENTA E TRES VOLTA REDONDA SANTO AGOSTINHO 27211670 RJ 96;VOLTA REDONDA;-22.484052200;-44.071850900;G0;RJVRD-A03SP22;RJVRD-A03SP22-SS8;VRD_A03_1_GPON_VLAN_109_110_111-ALC;1/1/1/16
EQP0000000075386531;I02G0733;CTO - PAD TEL-B-85/15;RJVRD_G1I02;RUA FERNANDO TEDESCO VOLTA REDONDA SAO LUCAS 27265280 RJ 421;VOLTA REDONDA;-22.528679700;-44.124394100;G0;RJVRD-I02SP92;RJVRD-I02SP92-SS5;VRD_I02_1_GPON_VLAN_231_232_233-HUA;1/1/5/0
EQP0000000075384695;A02G0154;CTO - PAD TELEFONICA;RJVRD_G1A02;RUA NICANOR TEIXEIRA DE CARVALHO VOLTA REDONDA BARREIRA CRAVO 27285500 RJ 40;VOLTA REDONDA;-22.494037600;-44.085536800;G0;RJVRD-A02SP20;RJVRD-A02SP20-SS2;VRD_A02_1_GPON_VLAN_106_107_108-ALC;1/1/1/13
EQP0000000075384152;A05G0327;CTO - PAD TELEFONICA;RJVRD_G1A05;RUA OSLO VOLTA REDONDA PONTE ALTA 27267521 RJ 367;VOLTA REDONDA;-22.536067900;-44.131216700;G0;RJVRD-A05SP41;RJVRD-A05SP41-SS7;VRD_A05_1_GPON_VLAN_112_113_114-ALC;1/1/3/4
EQP0000000075384746;A03G0197;CTO - PAD TELEFONICA;RJVRD_G1A03;RUA MIL E VINTE E SETE VOLTA REDONDA SANTO AGOSTINHO 27211270 RJ 52;VOLTA REDONDA;-22.483612700;-44.079753100;G0;RJVRD-A03SP25;RJVRD-A03SP25-SS5;VRD_A03_1_GPON_VLAN_109_110_111-ALC;1/1/2/3
EQP0000000075386306;I03G0567;CTO - PAD TEL-B-90/10;RJVRD_G1I03;RUA CINCO VOLTA REDONDA MONTE CASTELO 27253158 RJ 60;VOLTA REDONDA;-22.521694900;-44.087381400;G0;RJVRD-I03SP71;RJVRD-I03SP71-SS7;VRD_I03_1_GPON_VLAN_234_235_236-HUA;1/1/3/13
EQP0000000075381593;I01G0488;CTO - PAD TELEFONICA;RJVRD_G1I01;AVENIDA DEZESSETE DE JULHO VOLTA REDONDA ATERRADO 27213200 RJ 18;VOLTA REDONDA;-22.507938400;-44.092427400;G0;RJVRD-I01SP61;RJVRD-I01SP61-SS8;VRD_I01_1_GPON_VLAN_100_101_102-ALC;1/1/3/7
EQP0000000075382543;I01G0061;CTO - PAD TELEFONICA;RJVRD_G1I01;AVENIDA DEZESSETE DE JULHO VOLTA REDONDA ATERRADO 27213200 RJ 401;VOLTA REDONDA;-22.504413500;-44.091147500;G0;RJVRD-I01SP8;RJVRD-I01SP8-SS5;VRD_I01_1_GPON_VLAN_100_101_102-ALC;1/1/1/8
EQP0000000075388331;I01GP483;TO;RJVRD_G1I01;AVENIDA OSCAR DE ALMEIDA GAMA VOLTA REDONDA ATERRADO 27213260 RJ 91;VOLTA REDONDA;-22.507260600;-44.091656100;GP;RJVRD-I01SP61;RJVRD-I01SP61-SS3;VRD_I01_1_GPON_VLAN_100_101_102-ALC;1/1/3/7
EQP0000000075386697;A09G0320;CTO - PAD TELEFONICA;RJVRD_G1A09;RUA QUATORZE VOLTA REDONDA JARDIM VILA RICA   TIRADENTES 27259170 RJ 54;VOLTA REDONDA;-22.542404600;-44.065780100;G0;RJVRD-A09SP40;RJVRD-A09SP40-SS8;VRD_A09_1_GPON_VLAN_124_125_126-ALC;1/1/2/10
EQP0000000075393556;A03G0054;CTO - PAD TELEFONICA;RJVRD_G1A03;RUA CINCO B VOLTA REDONDA SANTO AGOSTINHO 27211348 RJ 508;VOLTA REDONDA;-22.486027700;-44.085683200;G0;RJVRD-A03SP7;RJVRD-A03SP7-SS6;VRD_A03_1_GPON_VLAN_109_110_111-ALC;1/1/1/7
EQP0000000075386960;I03G0389;CTO - PAD TEL-B-85/15;RJVRD_G1I03;RUA QUARENTA E CINCO VOLTA REDONDA SESSENTA 27256020 RJ 41;VOLTA REDONDA;-22.525355000;-44.098858800;G0;RJVRD-I03SP49;RJVRD-I03SP49-SS5;VRD_I03_1_GPON_VLAN_234_235_236-HUA;1/1/3/0
EQP0000000075384202;A08G0023;CTO - PAD TELEFONICA;RJVRD_G1A08;RUA SIQUEIRA CAMPOS VOLTA REDONDA AGUA LIMPA 27250520 RJ 488;VOLTA REDONDA;-22.512833200;-44.066644900;G0;RJVRD-A08SP3;RJVRD-A08SP3-SS7;VRD_A08_1_GPON_VLAN_121_122_123-ALC;1/1/1/3
EQP0000000075387826;A07G0018;CTO - PAD TELEFONICA;RJVRD_G1A07;RUA SESSENTA E DOIS VOLTA REDONDA SESSENTA 27260020 RJ 193;VOLTA REDONDA;-22.525481900;-44.100510600;G0;RJVRD-A07SP3;RJVRD-A07SP3-SS2;VRD_A07_1_GPON_VLAN_118_119_120-ALC;1/1/1/3
EQP0000000075384752;A02G0469;CTO - PAD TELEFONICA;RJVRD_G1A02;RUA SAO GABRIEL VOLTA REDONDA NITEROI 27283230 RJ 193;VOLTA REDONDA;-22.499046100;-44.089223800;G0;RJVRD-A02SP59;RJVRD-A02SP59-SS5;VRD_A02_1_GPON_VLAN_106_107_108-ALC;1/1/3/7
EQP0000000075385125;A06G0031;CTO - PAD TELEFONICA;RJVRD_G1A06;RUA ALMIRANTE TAMANDARE VOLTA REDONDA EUCALIPTAL 27263010 RJ 20;VOLTA REDONDA;-22.524013800;-44.119241600;G0;RJVRD-A06SP4;RJVRD-A06SP4-SS7;VRD_A06_1_GPON_VLAN_115_116_117-ALC;1/1/1/4
EQP0000000075385452;A03G0010;CTO - PAD TELEFONICA;RJVRD_G1A03;RUA SEIS A VOLTA REDONDA SANTO AGOSTINHO 27211298 RJ 601;VOLTA REDONDA;-22.487310400;-44.086786200;G0;RJVRD-A03SP2;RJVRD-A03SP2-SS2;VRD_A03_1_GPON_VLAN_109_110_111-ALC;1/1/1/2
EQP0000000075387808;A07G0012;CTO - PAD TELEFONICA;RJVRD_G1A07;RUA QUARENTA E UM-A VOLTA REDONDA VILA SANTA CECILIA 27261245 RJ 12;VOLTA REDONDA;-22.523349500;-44.100091400;G0;RJVRD-A07SP2;RJVRD-A07SP2-SS4;VRD_A07_1_GPON_VLAN_118_119_120-ALC;1/1/1/2
EQP0000000075381583;A01G0325;CTO - PAD TELEFONICA;RJVRD_G1A01;AVENIDA SANTA RITA VOLTA REDONDA RETIRO 27277210 RJ 355;VOLTA REDONDA;-22.497111700;-44.125061700;G0;RJVRD-A01SP41;RJVRD-A01SP41-SS5;VRD_A01_1_GPON_VLAN_103_104_105-ALC;1/1/2/13
EQP0000000075381100;I01G0342;CTO - PAD TELEFONICA;RJVRD_G1I01;RUA JOSE AUGUSTO DE ARAUJO VOLTA REDONDA ATERRADO 27213230 RJ SN;VOLTA REDONDA;-22.510350800;-44.091997600;G0;RJVRD-I01SP43;RJVRD-I01SP43-SS6;VRD_I01_1_GPON_VLAN_100_101_102-ALC;1/1/2/14
EQP0000000075386904;A08G0333;CTO - PAD TELEFONICA;RJVRD_G1A08;RUA PAISSANDU VOLTA REDONDA SAO GERALDO 27253620 RJ SN;VOLTA REDONDA;-22.517870200;-44.087595700;G0;RJVRD-A08SP42;RJVRD-A08SP42-SS5;VRD_A08_1_GPON_VLAN_121_122_123-ALC;1/1/2/12
EQP0000000075383390;A06G0443;CTO - PAD TELEFONICA;RJVRD_G1A06;RUA VINTE E SEIS VOLTA REDONDA VILA SANTA CECILIA 27260500 RJ 5;VOLTA REDONDA;-22.520254400;-44.102437300;G0;RJVRD-A06SP56;RJVRD-A06SP56-SS3;VRD_A06_1_GPON_VLAN_115_116_117-ALC;1/1/3/4
EQP0000000075393555;A02G0044;CTO - PAD TELEFONICA;RJVRD_G1A02;AVENIDA DA ABOLICAO VOLTA REDONDA VILA MURY 27281830 RJ 93;VOLTA REDONDA;-22.497540400;-44.103579700;G0;RJVRD-A02SP6;RJVRD-A02SP6-SS4;VRD_A02_1_GPON_VLAN_106_107_108-ALC;1/1/1/6
EQP0000000075384044;A08G0045;CTO - PAD TELEFONICA;RJVRD_G1A08;RUA PRIMO GRANATO VOLTA REDONDA JARDIM AMALIA 27251212 RJ 304;VOLTA REDONDA;-22.509819300;-44.071878500;G0;RJVRD-A08SP6;RJVRD-A08SP6-SS5;VRD_A08_1_GPON_VLAN_121_122_123-ALC;1/1/1/6
EQP0000000075393273;A01G0319;CTO - PAD TELEFONICA;RJVRD_G1A01;AVENIDA HENRIQUE VALADARES VOLTA REDONDA RETIRO 27277050 RJ 211;VOLTA REDONDA;-22.499686800;-44.127540300;G0;RJVRD-A01SP40;RJVRD-A01SP40-SS7;VRD_A01_1_GPON_VLAN_103_104_105-ALC;1/1/2/12
EQP0000000075382060;A01G0320;CTO - PAD TELEFONICA;RJVRD_G1A01;AVENIDA HENRIQUE VALADARES VOLTA REDONDA RETIRO 27277050 RJ 138;VOLTA REDONDA;-22.499664400;-44.126744400;G0;RJVRD-A01SP40;RJVRD-A01SP40-SS8;VRD_A01_1_GPON_VLAN_103_104_105-ALC;1/1/2/12
EQP0000000075387342;A09GPT6;CTO - PAD TELEFONICA;RJVRD_G1A09;RUA DOUTOR DJALMA CALDAS VOLTA REDONDA JARDIM BELVEDERE 27258250 RJ 217;VOLTA REDONDA;-22.535764700;-44.063580900;GPT;RJVRD-A09SP1;RJVRD-A09SP1-SS6;VRD_A09_1_GPON_VLAN_124_125_126-ALC;1/1/1/1
EQP0000000075386775;I02G0413;CTO - PAD TEL-B-85/15;RJVRD_G1I02;RUA FRANCISCO PEDRO VITORINO VOLTA REDONDA EUCALIPTAL 27264030 RJ 50;VOLTA REDONDA;-22.525242700;-44.122276100;G0;RJVRD-I02SP52;RJVRD-I02SP52-SS5;VRD_I02_1_GPON_VLAN_231_232_233-HUA;1/1/3/6
EQP0000000075384154;A05G0325;CTO - PAD TELEFONICA;RJVRD_G1A05;RUA ZURIQUE VOLTA REDONDA PONTE ALTA 27267401 RJ 116;VOLTA REDONDA;-22.536295200;-44.132180400;G0;RJVRD-A05SP41;RJVRD-A05SP41-SS5;VRD_A05_1_GPON_VLAN_112_113_114-ALC;1/1/3/4
EQP0000000075387391;A08G0440;CTO - PAD TELEFONICA;RJVRD_G1A08;RUA PROFESSOR AFONSO LEITE VOLTA REDONDA JARDIM AMALIA 27251360 RJ 95;VOLTA REDONDA;-22.512214700;-44.082312900;G0;RJVRD-A08SP55;RJVRD-A08SP55-SS8;VRD_A08_1_GPON_VLAN_121_122_123-ALC;1/1/3/2
EQP0000000075383780;A05G0012;CTO - PAD TELEFONICA;RJVRD_G1A05;RUA ARARAQUARA VOLTA REDONDA SAO CRISTOVAO 27264730 RJ 402;VOLTA REDONDA;-22.531527900;-44.118118900;G0;RJVRD-A05SP2;RJVRD-A05SP2-SS4;VRD_A05_1_GPON_VLAN_112_113_114-ALC;1/1/1/2
EQP0000000075384736;A05G0223;CTO - PAD TELEFONICA;RJVRD_G1A05;RUA FARIAS DE BRITO VOLTA REDONDA CONFORTO 27265270 RJ 258;VOLTA REDONDA;-22.527921500;-44.126054800;G0;RJVRD-A05SP28;RJVRD-A05SP28-SS7;VRD_A05_1_GPON_VLAN_112_113_114-ALC;1/1/2/9
EQP0000000075386613;I02G0438;CTO - PAD TEL-B-90/10;RJVRD_G1I02;RUA FERNANDO TEDESCO VOLTA REDONDA SAO LUCAS 27265280 RJ 113;VOLTA REDONDA;-22.526370300;-44.126116900;G0;RJVRD-I02SP55;RJVRD-I02SP55-SS6;VRD_I02_1_GPON_VLAN_231_232_233-HUA;1/1/3/9
EQP0000000075383781;A03G0170;CTO - PAD TELEFONICA;RJVRD_G1A03;RUA MIL E QUARENTA E TRES VOLTA REDONDA SANTO AGOSTINHO 27211670 RJ 2;VOLTA REDONDA;-22.484661700;-44.075218600;G0;RJVRD-A03SP22;RJVRD-A03SP22-SS2;VRD_A03_1_GPON_VLAN_109_110_111-ALC;1/1/1/16
EQP0000000075387521;A07G0059;CTO - PAD TELEFONICA;RJVRD_G1A07;RUA TREZENTOS E DEZ VOLTA REDONDA SESSENTA 27256120 RJ 24;VOLTA REDONDA;-22.525611000;-44.092621200;G0;RJVRD-A07SP8;RJVRD-A07SP8-SS3;VRD_A07_1_GPON_VLAN_118_119_120-ALC;1/1/1/8
EQP0000000075388161;A07GF464;CTO - PAD TELEFONICA;RJVRD_G1A07;AVENIDA AMARAL PEIXOTO VOLTA REDONDA SAO JOAO 27253222 RJ 163;VOLTA REDONDA;-22.512923500;-44.093585600;OUTROS;RJVRD-A07SP58;RJVRD-A07SP58-SS8;VRD_A07_1_GPON_VLAN_118_119_120-ALC;1/1/3/6
EQP0000000075385480;A02G0061;CTO - PAD TELEFONICA;RJVRD_G1A02;AVENIDA SAVIO COTA DE ALMEIDA GAMA VOLTA REDONDA RETIRO 27281421 RJ 1368;VOLTA REDONDA;-22.495550900;-44.103113600;G0;RJVRD-A02SP8;RJVRD-A02SP8-SS5;VRD_A02_1_GPON_VLAN_106_107_108-ALC;1/1/1/8
EQP0000000075387267;I02G0297;CTO - PAD TELEFONICA - B;RJVRD_G1I02;RUA JOSE MIGUEL VOLTA REDONDA PONTE ALTA 27267450 RJ 173;VOLTA REDONDA;-22.535165900;-44.132506700;G0;RJVRD-I02SP38;RJVRD-I02SP38-SS1;VRD_I02_1_GPON_VLAN_231_232_233-HUA;1/1/2/15
EQP0000000075381080;I01G0334;CTO - PAD TELEFONICA;RJVRD_G1I01;AVENIDA PAULO DE FRONTIN VOLTA REDONDA ATERRADO 27215580 RJ 174;VOLTA REDONDA;-22.510117900;-44.094078400;G0;RJVRD-I01SP42;RJVRD-I01SP42-SS6;VRD_I01_1_GPON_VLAN_100_101_102-ALC;1/1/2/13
EQP0000000075385876;A03G0475;CTO - PAD TELEFONICA;RJVRD_G1A03;RUA PORTO VELHO VOLTA REDONDA SANTO AGOSTINHO 27210510 RJ 104;VOLTA REDONDA;-22.488262800;-44.073277600;G0;RJVRD-A03SP60;RJVRD-A03SP60-SS3;VRD_A03_1_GPON_VLAN_109_110_111-ALC;1/1/3/8
EQP0000000075386016;I03G0691;CTO - PAD TEL-B-70/30;RJVRD_G1I03;RUA PASCOAL SILVA VOLTA REDONDA AGUA LIMPA 27250470 RJ 145;VOLTA REDONDA;-22.508306200;-44.069781400;G0;RJVRD-I03SP87;RJVRD-I03SP87-SS3;VRD_I03_1_GPON_VLAN_234_235_236-HUA;1/1/4/7
EQP0000000075387509;A03G0034;CTO - PAD TELEFONICA;RJVRD_G1A03;RUA B VOLTA REDONDA PARQUE DAS ILHAS 27211010 RJ 80;VOLTA REDONDA;-22.489546600;-44.086001100;G0;RJVRD-A03SP5;RJVRD-A03SP5-SS2;VRD_A03_1_GPON_VLAN_109_110_111-ALC;1/1/1/5
EQP0000000075392270;A07G0218;CTO - PAD TELEFONICA;RJVRD_G1A07;RUA CENTO E SEIS VOLTA REDONDA LARANJAL 27255150 RJ 159;VOLTA REDONDA;-22.518197200;-44.096923900;G0;RJVRD-A07SP28;RJVRD-A07SP28-SS2;VRD_A07_1_GPON_VLAN_118_119_120-ALC;1/1/2/5
EQP0000000075391576;A03G0224;CTO - PAD TELEFONICA;RJVRD_G1A03;RUA SARGENTO PAULO MOREIRA VOLTA REDONDA SANTO AGOSTINHO 27211150 RJ 296;VOLTA REDONDA;-22.484683800;-44.080599800;G0;RJVRD-A03SP28;RJVRD-A03SP28-SS8;VRD_A03_1_GPON_VLAN_109_110_111-ALC;1/1/2/6
EQP0000000075383806;A03G0172;CTO - PAD TELEFONICA;RJVRD_G1A03;RUA MIL E QUARENTA E TRES VOLTA REDONDA SANTO AGOSTINHO 27211670 RJ 74;VOLTA REDONDA;-22.483938000;-44.072716700;G0;RJVRD-A03SP22;RJVRD-A03SP22-SS4;VRD_A03_1_GPON_VLAN_109_110_111-ALC;1/1/1/16
EQP0000000075384378;A02G0179;CTO - PAD TELEFONICA;RJVRD_G1A02;RUA CINCO VOLTA REDONDA BARREIRA CRAVO 27285670 RJ 86;VOLTA REDONDA;-22.494407300;-44.086489700;G0;RJVRD-A02SP23;RJVRD-A02SP23-SS4;VRD_A02_1_GPON_VLAN_106_107_108-ALC;1/1/1/16
EQP0000000075381909;I01G0229;CTO - PAD TELEFONICA;RJVRD_G1I01;RUA PRIMEIRO CABO LUIZ AUGUSTO PEREIRA VOLTA REDONDA ATERRADO 27215570 RJ 76;VOLTA REDONDA;-22.505820900;-44.093396200;G0;RJVRD-I01SP29;RJVRD-I01SP29-SS5;VRD_I01_1_GPON_VLAN_100_101_102-ALC;1/1/2/6
EQP0000000075384436;A05G0234;CTO - PAD TELEFONICA;RJVRD_G1A05;RUA DUZENTOS E DEZ VOLTA REDONDA CONFORTO 27265210 RJ 25;VOLTA REDONDA;-22.526102300;-44.127630300;G0;RJVRD-A05SP30;RJVRD-A05SP30-SS2;VRD_A05_1_GPON_VLAN_112_113_114-ALC;1/1/2/11
EQP0000000075388019;A07GP223;TO;RJVRD_G1A07;RUA CENTO E CINQUENTA E QUATRO VOLTA REDONDA LARANJAL 27255085 RJ 1467;VOLTA REDONDA;-22.517688600;-44.094842200;GP;RJVRD-A07SP28;RJVRD-A07SP28-SS7;VRD_A07_1_GPON_VLAN_118_119_120-ALC;1/1/2/5
EQP0000000075392994;I03G0643;CTO - PAD TEL-B-70/30;RJVRD_G1I03;RUA CRISTOVAO COLOMBO VOLTA REDONDA JARDIM AMALIA 27251025 RJ 359;VOLTA REDONDA;-22.508655900;-44.077025500;G0;RJVRD-I03SP81;RJVRD-I03SP81-SS3;VRD_I03_1_GPON_VLAN_234_235_236-HUA;1/1/4/1
EQP0000000075385245;A03G0497;CTO - PAD TELEFONICA;RJVRD_G1A03;RUA JAIME MARTINS VOLTA REDONDA SANTO AGOSTINHO 27210070 RJ 457;VOLTA REDONDA;-22.489658900;-44.071754700;G0;RJVRD-A03SP63;RJVRD-A03SP63-SS1;VRD_A03_1_GPON_VLAN_109_110_111-ALC;1/1/3/11
EQP0000000079574901;A06GP326;MINI CDOE 1:2 + 1:8 PRECON SELADA 60/40;RJVRD_G1A06;LARGO NOVE DE ABRIL VOLTA REDONDA VILA SANTA CECILIA 27260180 RJ 26;VOLTA REDONDA;-22.517167500;-44.106469900;GP;RJVRD-A06SP41;RJVRD-A06SP41-SS6;VRD_A06_1_GPON_VLAN_115_116_117-ALC;1/1/2/10
EQP0000000075381137;A01G0155;CTO - PAD TELEFONICA;RJVRD_G1A01;AVENIDA COIMBRA VOLTA REDONDA RETIRO 27281335 RJ 433;VOLTA REDONDA;-22.498622700;-44.108342300;G0;RJVRD-A01SP20;RJVRD-A01SP20-SS3;VRD_A01_1_GPON_VLAN_103_104_105-ALC;1/1/1/14
EQP0000000075388458;I03G0840;CTO - PAD TEL-B-90/10;RJVRD_G1I03;RUA SAO JOAO VOLTA REDONDA SAO JOAO 27253360 RJ 2;VOLTA REDONDA;-22.512421600;-44.092492100;G0;RJVRD-I03SP105;RJVRD-I03SP105-SS8;VRD_I03_1_GPON_VLAN_234_235_236-HUA;1/1/5/9
EQP0000000075388458;I03G0840;CTO - PAD TEL-B-90/10;RJVRD_G1I03;RUA SAO JOAO VOLTA REDONDA SAO JOAO 27253360 RJ 2;VOLTA REDONDA;-22.512421600;-44.092492100;G0;RJVRD-I03SP105;RJVRD-I03SP105-SS8;VRD_I03_1_GPON_VLAN_234_235_236-HUA;1/1/5/9
EQP0000000075388389;I03G0696;CTO - PAD TEL-B-90/10;RJVRD_G1I03;RUA VEREADOR JOSE MARQUES SIMOES VOLTA REDONDA JARDIM AMALIA 27251163 RJ 395;VOLTA REDONDA;-22.510718400;-44.072586100;G0;RJVRD-I03SP87;RJVRD-I03SP87-SS8;VRD_I03_1_GPON_VLAN_234_235_236-HUA;1/1/4/7
EQP0000000075383504;A03G0451;CTO - PAD TELEFONICA;RJVRD_G1A03;RUA MIL E QUARENTA E DOIS VOLTA REDONDA SANTO AGOSTINHO 27210165 RJ 9;VOLTA REDONDA;-22.486186300;-44.073290000;G0;RJVRD-A03SP57;RJVRD-A03SP57-SS3;VRD_A03_1_GPON_VLAN_109_110_111-ALC;1/1/3/5
EQP0000000075393576;I03G0831;CTO - PAD TEL-B-90/10;RJVRD_G1I03;RODOVIA BR 393 - AVENIDA GETULIO VARGAS VOLTA REDONDA SAO JOAO 27253410 RJ 851;VOLTA REDONDA;-22.512360100;-44.093475100;G0;RJVRD-I03SP104;RJVRD-I03SP104-SS7;VRD_I03_1_GPON_VLAN_234_235_236-HUA;1/1/5/8
EQP0000000075393268;A01G0305;CTO - PAD TELEFONICA;RJVRD_G1A01;AVENIDA RETIRO VOLTA REDONDA RETIRO 27274530 RJ 3964;VOLTA REDONDA;-22.501823700;-44.125300100;G0;RJVRD-A01SP39;RJVRD-A01SP39-SS1;VRD_A01_1_GPON_VLAN_103_104_105-ALC;1/1/2/11
EQP0000000075388086;I02G0483;CTO - PAD TEL-B-70/30;RJVRD_G1I02;RUA VEREADOR RAYMUNDO DIOGO VOLTA REDONDA EUCALIPTAL 27263211 RJ 440;VOLTA REDONDA;-22.525445900;-44.120660300;G0;RJVRD-I02SP61;RJVRD-I02SP61-SS3;VRD_I02_1_GPON_VLAN_231_232_233-HUA;1/1/3/15
EQP0000000075384028;A08G0084;CTO - PAD TELEFONICA;RJVRD_G1A08;RUA VEREADOR BENEDITO FONSECA VOLTA REDONDA JARDIM AMALIA 27251193 RJ 123;VOLTA REDONDA;-22.513094800;-44.073857300;G0;RJVRD-A08SP11;RJVRD-A08SP11-SS4;VRD_A08_1_GPON_VLAN_121_122_123-ALC;1/1/1/11
EQP0000000075383914;A05G0079;CTO - PAD TELEFONICA;RJVRD_G1A05;AVENIDA EUROPA VOLTA REDONDA DUZENTOS E QUARENTA E NOVE 27265250 RJ 612;VOLTA REDONDA;-22.531797800;-44.126660400;G0;RJVRD-A05SP10;RJVRD-A05SP10-SS7;VRD_A05_1_GPON_VLAN_112_113_114-ALC;1/1/1/10
EQP0000000075386032;I03G0697;CTO - PAD TELEFONICA - B;RJVRD_G1I03;RUA SALVADOR DE SA VOLTA REDONDA AGUA LIMPA 27250510 RJ 580;VOLTA REDONDA;-22.515465800;-44.067067500;G0;RJVRD-I03SP88;RJVRD-I03SP88-SS1;VRD_I03_1_GPON_VLAN_234_235_236-HUA;1/1/4/8
EQP0000000075386032;I03G0697;CTO - PAD TELEFONICA - B;RJVRD_G1I03;RUA SALVADOR DE SA VOLTA REDONDA AGUA LIMPA 27250510 RJ 580;VOLTA REDONDA;-22.515465800;-44.067067500;G0;RJVRD-I03SP88;RJVRD-I03SP88-SS1;VRD_I03_1_GPON_VLAN_234_235_236-HUA;1/1/4/8
EQP0000000075382687;A01G0450;CTO - PAD TELEFONICA;RJVRD_G1A01;AVENIDA GOIAS VOLTA REDONDA RETIRO 27274070 RJ 300;VOLTA REDONDA;-22.508194500;-44.123442900;G0;RJVRD-A01SP57;RJVRD-A01SP57-SS2;VRD_A01_1_GPON_VLAN_103_104_105-ALC;1/1/3/6
EQP0000000075382880;A01G0487;CTO - PAD TELEFONICA;RJVRD_G1A01;RUA FREI CANECA VOLTA REDONDA RETIRO 27275405 RJ 90;VOLTA REDONDA;-22.505851000;-44.118797100;G0;RJVRD-A01SP61;RJVRD-A01SP61-SS7;VRD_A01_1_GPON_VLAN_103_104_105-ALC;1/1/3/10
EQP0000000075387019;I01G0082;CTO - PAD TELEFONICA;RJVRD_G1I01;AVENIDA DEZESSETE DE JULHO VOLTA REDONDA ATERRADO 27213200 RJ 512;VOLTA REDONDA;-22.503159500;-44.090560000;G0;RJVRD-I01SP11;RJVRD-I01SP11-SS2;VRD_I01_1_GPON_VLAN_100_101_102-ALC;1/1/1/11
EQP0000000075385543;A03G0493;CTO - PAD TELEFONICA;RJVRD_G1A03;RUA PORTO ALEGRE VOLTA REDONDA SANTO AGOSTINHO 27210500 RJ 99;VOLTA REDONDA;-22.488107300;-44.075500700;G0;RJVRD-A03SP62;RJVRD-A03SP62-SS5;VRD_A03_1_GPON_VLAN_109_110_111-ALC;1/1/3/10
EQP0000000075391777;A07GP176;TO;RJVRD_G1A07;RUA CENTO E SESSENTA E UM-B VOLTA REDONDA LARANJAL 27255380 RJ 140;VOLTA REDONDA;-22.515855400;-44.101012000;GP;RJVRD-A07SP22;RJVRD-A07SP22-SS8;VRD_A07_1_GPON_VLAN_118_119_120-ALC;1/1/1/15
EQP0000000075386508;I02G0742;CTO - PAD TEL-B-90/10;RJVRD_G1I02;RUA VARGINHA VOLTA REDONDA MINERLANDIA 27264826 RJ 57;VOLTA REDONDA;-22.531662300;-44.122761100;G0;RJVRD-I02SP93;RJVRD-I02SP93-SS6;VRD_I02_1_GPON_VLAN_231_232_233-HUA;1/1/5/1
EQP0000000075383497;A03G0455;CTO - PAD TELEFONICA;RJVRD_G1A03;RUA MIL E QUARENTA E QUATRO VOLTA REDONDA SANTO AGOSTINHO 27210150 RJ 13;VOLTA REDONDA;-22.485954600;-44.073625100;G0;RJVRD-A03SP57;RJVRD-A03SP57-SS7;VRD_A03_1_GPON_VLAN_109_110_111-ALC;1/1/3/5
EQP0000000075386931;I03G0398;CTO - PAD TEL-B-90/10;RJVRD_G1I03;RUA CINQUENTA E OITO VOLTA REDONDA VILA SANTA CECILIA 27261080 RJ 5;VOLTA REDONDA;-22.523487300;-44.100472700;G0;RJVRD-I03SP50;RJVRD-I03SP50-SS6;VRD_I03_1_GPON_VLAN_234_235_236-HUA;1/1/3/1
EQP0000000075391426;A03G0088;CTO - PAD TELEFONICA;RJVRD_G1A03;LADEIRA UM VOLTA REDONDA SANTO AGOSTINHO 27211540 RJ 1;VOLTA REDONDA;-22.488439600;-44.080329800;G0;RJVRD-A03SP11;RJVRD-A03SP11-SS8;VRD_A03_1_GPON_VLAN_109_110_111-ALC;1/1/1/11
EQP0000000075383876;A08G0070;CTO - PAD TELEFONICA;RJVRD_G1A08;RUA VEREADOR BENEDITO FONSECA VOLTA REDONDA JARDIM AMALIA 27251193 RJ 281;VOLTA REDONDA;-22.511773400;-44.071496800;G0;RJVRD-A08SP9;RJVRD-A08SP9-SS6;VRD_A08_1_GPON_VLAN_121_122_123-ALC;1/1/1/9
EQP0000000075386320;I02G0445;CTO - PAD TEL-B-85/15;RJVRD_G1I02;RUA NOSSA SENHORA DA CONCEICAO VOLTA REDONDA CONFORTO 27263432 RJ 310;VOLTA REDONDA;-22.524130600;-44.124819400;G0;RJVRD-I02SP56;RJVRD-I02SP56-SS5;VRD_I02_1_GPON_VLAN_231_232_233-HUA;1/1/3/10
EQP0000000075386320;I02G0445;CTO - PAD TEL-B-85/15;RJVRD_G1I02;RUA NOSSA SENHORA DA CONCEICAO VOLTA REDONDA CONFORTO 27263432 RJ 310;VOLTA REDONDA;-22.524130600;-44.124819400;G0;RJVRD-I02SP56;RJVRD-I02SP56-SS5;VRD_I02_1_GPON_VLAN_231_232_233-HUA;1/1/3/10
EQP0000000075391699;A08G0015;CTO - PAD TELEFONICA;RJVRD_G1A08;RUA DAS CRAVINAS VOLTA REDONDA AGUA LIMPA 27250000 RJ 399;VOLTA REDONDA;-22.507582100;-44.068769300;G0;RJVRD-A08SP2;RJVRD-A08SP2-SS7;VRD_A08_1_GPON_VLAN_121_122_123-ALC;1/1/1/2
EQP0000000075387723;I02G0268;CTO - PAD TEL-B-80/20;RJVRD_G1I02;RUA DEZESSETE-B VOLTA REDONDA BELA VISTA 27262190 RJ 195;VOLTA REDONDA;-22.520789900;-44.110412100;G0;RJVRD-I02SP34;RJVRD-I02SP34-SS4;VRD_I02_1_GPON_VLAN_231_232_233-HUA;1/1/2/11
EQP0000000075385139;A09G0208;CTO - PAD TELEFONICA;RJVRD_G1A09;RUA VINTE E DOIS VOLTA REDONDA JARDIM VILA RICA   TIRADENTES 27259240 RJ 506;VOLTA REDONDA;-22.544445700;-44.067845000;G0;RJVRD-A09SP26;RJVRD-A09SP26-SS8;VRD_A09_1_GPON_VLAN_124_125_126-ALC;1/1/2/4
EQP0000000075386571;A09G0312;CTO - PAD TELEFONICA;RJVRD_G1A09;RUA DEZENOVE VOLTA REDONDA JARDIM VILA RICA   TIRADENTES 27259220 RJ 233;VOLTA REDONDA;-22.542768200;-44.063839700;G0;RJVRD-A09SP39;RJVRD-A09SP39-SS8;VRD_A09_1_GPON_VLAN_124_125_126-ALC;1/1/2/9
EQP0000000079656501;I01GP440;MINI CDOE 1:2 + 1:8 PRECON SELADA 60/40;RJVRD_G1I01;RUA PRIMEIRO CABO LUIZ AUGUSTO PEREIRA VOLTA REDONDA ATERRADO 27213140 RJ 377;VOLTA REDONDA;-22.506984800;-44.089475300;GP;RJVRD-I01SP55;RJVRD-I01SP55-SS8;VRD_I01_1_GPON_VLAN_100_101_102-ALC;1/1/3/1
EQP0000000075386303;I03G0568;CTO - PAD TEL-B-90/10;RJVRD_G1I03;RUA CINCO VOLTA REDONDA MONTE CASTELO 27253158 RJ 140;VOLTA REDONDA;-22.522295200;-44.087018800;G0;RJVRD-I03SP71;RJVRD-I03SP71-SS8;VRD_I03_1_GPON_VLAN_234_235_236-HUA;1/1/3/13
EQP0000000075382686;A01G0451;CTO - PAD TELEFONICA;RJVRD_G1A01;AVENIDA GOIAS VOLTA REDONDA RETIRO 27274070 RJ 458;VOLTA REDONDA;-22.507675300;-44.122860200;G0;RJVRD-A01SP57;RJVRD-A01SP57-SS3;VRD_A01_1_GPON_VLAN_103_104_105-ALC;1/1/3/6
EQP0000000075382185;I04G0466;CTO - PAD TELEFONICA;RJVRD_G1I04;RUA ESTADOS UNIDOS VOLTA REDONDA VILA AMERICANA 27212160 RJ 405;VOLTA REDONDA;-22.494735600;-44.073212900;G0;RJVRD-I04SP59;RJVRD-I04SP59-SS2;VRD_I04_1_GPON_VLAN_127_128_129-ALC;1/1/3/13
EQP0000000075385214;A03G0504;CTO - PAD TELEFONICA;RJVRD_G1A03;RUA MANAUS VOLTA REDONDA SANTO AGOSTINHO 27210120 RJ 140;VOLTA REDONDA;-22.488829400;-44.074450600;G0;RJVRD-A03SP63;RJVRD-A03SP63-SS8;VRD_A03_1_GPON_VLAN_109_110_111-ALC;1/1/3/11
EQP0000000075387381;A08G0438;CTO - PAD TELEFONICA;RJVRD_G1A08;RUA PROFESSOR AFONSO LEITE VOLTA REDONDA JARDIM AMALIA 27251360 RJ 380;VOLTA REDONDA;-22.513923900;-44.081226000;G0;RJVRD-A08SP55;RJVRD-A08SP55-SS6;VRD_A08_1_GPON_VLAN_121_122_123-ALC;1/1/3/2
EQP0000000075383958;A02G0357;CTO - PAD TELEFONICA;RJVRD_G1A02;RUA NAIR ROCHA ALMEIDA VOLTA REDONDA JARDIM PRIMAVERA 27283580 RJ 32;VOLTA REDONDA;-22.496706900;-44.097504600;G0;RJVRD-A02SP45;RJVRD-A02SP45-SS5;VRD_A02_1_GPON_VLAN_106_107_108-ALC;1/1/2/16
EQP0000000075383199;A01G0219;CTO - PAD TELEFONICA;RJVRD_G1A01;RUA SAO JUDAS TADEU VOLTA REDONDA RETIRO 27275210 RJ 102;VOLTA REDONDA;-22.501484600;-44.118660700;G0;RJVRD-A01SP28;RJVRD-A01SP28-SS3;VRD_A01_1_GPON_VLAN_103_104_105-ALC;1/1/2/6
EQP0000000075392293;A09G0089;CTO - PAD TELEFONICA;RJVRD_G1A09;RUA ROMEU DA COSTA VIEIRA VOLTA REDONDA JARDIM BELVEDERE 27258020 RJ 36;VOLTA REDONDA;-22.532075300;-44.074251600;G0;RJVRD-A09SP12;RJVRD-A09SP12-SS2;VRD_A09_1_GPON_VLAN_124_125_126-ALC;1/1/1/12
EQP0000000075383943;A03G0179;CTO - PAD TELEFONICA;RJVRD_G1A03;RUA MIL E QUARENTA E TRES VOLTA REDONDA SANTO AGOSTINHO 27211670 RJ 36;VOLTA REDONDA;-22.484941300;-44.073877400;G0;RJVRD-A03SP23;RJVRD-A03SP23-SS3;VRD_A03_1_GPON_VLAN_109_110_111-ALC;1/1/2/1
EQP0000000075381579;A01G0330;CTO - PAD TELEFONICA;RJVRD_G1A01;RUA MASCARENHAS DE MORAES VOLTA REDONDA RETIRO 27277840 RJ 45;VOLTA REDONDA;-22.497342500;-44.123559200;G0;RJVRD-A01SP42;RJVRD-A01SP42-SS2;VRD_A01_1_GPON_VLAN_103_104_105-ALC;1/1/2/14
EQP0000000075382043;A01G0299;CTO - PAD TELEFONICA;RJVRD_G1A01;AVENIDA PASTOR CESAR ALVES DE CASTRO VOLTA REDONDA RETIRO 27274280 RJ 304;VOLTA REDONDA;-22.502228100;-44.128653600;G0;RJVRD-A01SP38;RJVRD-A01SP38-SS3;VRD_A01_1_GPON_VLAN_103_104_105-ALC;1/1/2/10
EQP0000000075385724;A05G0170;CTO - PAD TELEFONICA;RJVRD_G1A05;RUA NILO PECANHA VOLTA REDONDA EUCALIPTAL 27263140 RJ 222;VOLTA REDONDA;-22.528857700;-44.119373900;G0;RJVRD-A05SP22;RJVRD-A05SP22-SS2;VRD_A05_1_GPON_VLAN_112_113_114-ALC;1/1/2/3
EQP0000000075382396;I01G0148;CTO - PAD TELEFONICA;RJVRD_G1I01;RUA QUINHENTOS E TRINTA E CINCO E VOLTA REDONDA JARDIM PARAIBA 27215480 RJ 45;VOLTA REDONDA;-22.500675100;-44.094516000;G0;RJVRD-I01SP19;RJVRD-I01SP19-SS4;VRD_I01_1_GPON_VLAN_100_101_102-ALC;1/1/1/12
